[
  {
    "Id": 5001,
    "Nombremunicipio": "MEDELLIN",
    "Iddepartamento": 5,
    "Nombredepartamento": "ANTIOQUIA",
    "Longitud": "-75.581713332",
    "Latitud": "6.246715564",
    "Zomac": "NO",
    "Pedet": "NO"
  },
  {
    "Id": 5002,
    "Nombremunicipio": "ABEJORRAL",
    "Iddepartamento": 5,
    "Nombredepartamento": "ANTIOQUIA",
    "Longitud": "-75.4287380971",
    "Latitud": "5.78930448541",
    "Zomac": "SI",
    "Pedet": "NO"
  },
  {
    "Id": 5004,
    "Nombremunicipio": "ABRIAQUI",
    "Iddepartamento": 5,
    "Nombredepartamento": "ANTIOQUIA",
    "Longitud": "-76.0647034585",
    "Latitud": "6.63180645181",
    "Zomac": "SI",
    "Pedet": "NO"
  },
  {
    "Id": 5021,
    "Nombremunicipio": "ALEJANDRIA",
    "Iddepartamento": 5,
    "Nombredepartamento": "ANTIOQUIA",
    "Longitud": "-75.1413329006",
    "Latitud": "6.37606567589",
    "Zomac": "SI",
    "Pedet": "NO"
  },
  {
    "Id": 5030,
    "Nombremunicipio": "AMAGA",
    "Iddepartamento": 5,
    "Nombredepartamento": "ANTIOQUIA",
    "Longitud": "-75.7019460715",
    "Latitud": "6.03880857536",
    "Zomac": "NO",
    "Pedet": "NO"
  },
  {
    "Id": 5031,
    "Nombremunicipio": "AMALFI",
    "Iddepartamento": 5,
    "Nombredepartamento": "ANTIOQUIA",
    "Longitud": "-75.0825242787",
    "Latitud": "6.91230472638",
    "Zomac": "SI",
    "Pedet": "SI"
  },
  {
    "Id": 5034,
    "Nombremunicipio": "ANDES",
    "Iddepartamento": 5,
    "Nombredepartamento": "ANTIOQUIA",
    "Longitud": "-75.8787918873",
    "Latitud": "5.65677485248",
    "Zomac": "NO",
    "Pedet": "NO"
  },
  {
    "Id": 5036,
    "Nombremunicipio": "ANGELOPOLIS",
    "Iddepartamento": 5,
    "Nombredepartamento": "ANTIOQUIA",
    "Longitud": "-75.7113511436",
    "Latitud": "6.10961436831",
    "Zomac": "NO",
    "Pedet": "NO"
  },
  {
    "Id": 5038,
    "Nombremunicipio": "ANGOSTURA",
    "Iddepartamento": 5,
    "Nombredepartamento": "ANTIOQUIA",
    "Longitud": "-75.3351159651",
    "Latitud": "6.88517459133",
    "Zomac": "SI",
    "Pedet": "NO"
  },
  {
    "Id": 5040,
    "Nombremunicipio": "ANORI",
    "Iddepartamento": 5,
    "Nombredepartamento": "ANTIOQUIA",
    "Longitud": "-75.1483484246",
    "Latitud": "7.07470766852",
    "Zomac": "SI",
    "Pedet": "SI"
  },
  {
    "Id": 5042,
    "Nombremunicipio": "SANTA FE DE ANTIOQUIA",
    "Iddepartamento": 5,
    "Nombredepartamento": "ANTIOQUIA",
    "Longitud": "-75.827079071",
    "Latitud": "6.55653329637",
    "Zomac": "SI",
    "Pedet": "NO"
  },
  {
    "Id": 5044,
    "Nombremunicipio": "ANZA",
    "Iddepartamento": 5,
    "Nombredepartamento": "ANTIOQUIA",
    "Longitud": "-75.8544415828",
    "Latitud": "6.3026583592",
    "Zomac": "NO",
    "Pedet": "NO"
  },
  {
    "Id": 5045,
    "Nombremunicipio": "APARTADO",
    "Iddepartamento": 5,
    "Nombredepartamento": "ANTIOQUIA",
    "Longitud": "-76.6259606537",
    "Latitud": "7.88341740579",
    "Zomac": "SI",
    "Pedet": "SI"
  },
  {
    "Id": 5051,
    "Nombremunicipio": "ARBOLETES",
    "Iddepartamento": 5,
    "Nombredepartamento": "ANTIOQUIA",
    "Longitud": "-76.4270567981",
    "Latitud": "8.85056773431",
    "Zomac": "NO",
    "Pedet": "NO"
  },
  {
    "Id": 5055,
    "Nombremunicipio": "ARGELIA",
    "Iddepartamento": 5,
    "Nombredepartamento": "ANTIOQUIA",
    "Longitud": "-75.1417414563",
    "Latitud": "5.7306718788",
    "Zomac": "SI",
    "Pedet": "NO"
  },
  {
    "Id": 5059,
    "Nombremunicipio": "ARMENIA",
    "Iddepartamento": 5,
    "Nombredepartamento": "ANTIOQUIA",
    "Longitud": "-75.7868378278",
    "Latitud": "6.15581872915",
    "Zomac": "NO",
    "Pedet": "NO"
  },
  {
    "Id": 5079,
    "Nombremunicipio": "BARBOSA",
    "Iddepartamento": 5,
    "Nombredepartamento": "ANTIOQUIA",
    "Longitud": "-75.3316442322",
    "Latitud": "6.43922688162",
    "Zomac": "NO",
    "Pedet": "NO"
  },
  {
    "Id": 5086,
    "Nombremunicipio": "BELMIRA",
    "Iddepartamento": 5,
    "Nombredepartamento": "ANTIOQUIA",
    "Longitud": "-75.6673741337",
    "Latitud": "6.60615950206",
    "Zomac": "NO",
    "Pedet": "NO"
  },
  {
    "Id": 5088,
    "Nombremunicipio": "BELLO",
    "Iddepartamento": 5,
    "Nombredepartamento": "ANTIOQUIA",
    "Longitud": "-75.554665073",
    "Latitud": "6.33406883641",
    "Zomac": "NO",
    "Pedet": "NO"
  },
  {
    "Id": 5091,
    "Nombremunicipio": "BETANIA",
    "Iddepartamento": 5,
    "Nombredepartamento": "ANTIOQUIA",
    "Longitud": "-75.97554408",
    "Latitud": "5.74474717984",
    "Zomac": "NO",
    "Pedet": "NO"
  },
  {
    "Id": 5093,
    "Nombremunicipio": "BETULIA",
    "Iddepartamento": 5,
    "Nombredepartamento": "ANTIOQUIA",
    "Longitud": "-75.9845158732",
    "Latitud": "6.11525559427",
    "Zomac": "NO",
    "Pedet": "NO"
  },
  {
    "Id": 5101,
    "Nombremunicipio": "CIUDAD BOLIVAR",
    "Iddepartamento": 5,
    "Nombredepartamento": "ANTIOQUIA",
    "Longitud": "-76.021509205",
    "Latitud": "5.85027323212",
    "Zomac": "NO",
    "Pedet": "NO"
  },
  {
    "Id": 5107,
    "Nombremunicipio": "BRICENO",
    "Iddepartamento": 5,
    "Nombredepartamento": "ANTIOQUIA",
    "Longitud": "-75.5481302168",
    "Latitud": "7.11488294739",
    "Zomac": "SI",
    "Pedet": "SI"
  },
  {
    "Id": 5113,
    "Nombremunicipio": "BURITICA",
    "Iddepartamento": 5,
    "Nombredepartamento": "ANTIOQUIA",
    "Longitud": "-75.9075347298",
    "Latitud": "6.71973517464",
    "Zomac": "NO",
    "Pedet": "NO"
  },
  {
    "Id": 5120,
    "Nombremunicipio": "CACERES",
    "Iddepartamento": 5,
    "Nombredepartamento": "ANTIOQUIA",
    "Longitud": "-75.3523574868",
    "Latitud": "7.5783154508",
    "Zomac": "SI",
    "Pedet": "SI"
  },
  {
    "Id": 5125,
    "Nombremunicipio": "CAICEDO",
    "Iddepartamento": 5,
    "Nombredepartamento": "ANTIOQUIA",
    "Longitud": "-75.9828188939",
    "Latitud": "6.40556700301",
    "Zomac": "SI",
    "Pedet": "NO"
  },
  {
    "Id": 5129,
    "Nombremunicipio": "CALDAS",
    "Iddepartamento": 5,
    "Nombredepartamento": "ANTIOQUIA",
    "Longitud": "-75.6336187219",
    "Latitud": "6.09129696608",
    "Zomac": "NO",
    "Pedet": "NO"
  },
  {
    "Id": 5134,
    "Nombremunicipio": "CAMPAMENTO",
    "Iddepartamento": 5,
    "Nombredepartamento": "ANTIOQUIA",
    "Longitud": "-75.2980884258",
    "Latitud": "6.97977768219",
    "Zomac": "SI",
    "Pedet": "NO"
  },
  {
    "Id": 5138,
    "Nombremunicipio": "CANASGORDAS",
    "Iddepartamento": 5,
    "Nombredepartamento": "ANTIOQUIA",
    "Longitud": "-76.032209943",
    "Latitud": "6.75947768445",
    "Zomac": "NO",
    "Pedet": "NO"
  },
  {
    "Id": 5142,
    "Nombremunicipio": "CARACOLI",
    "Iddepartamento": 5,
    "Nombredepartamento": "ANTIOQUIA",
    "Longitud": "-74.7574494413",
    "Latitud": "6.40985472681",
    "Zomac": "NO",
    "Pedet": "NO"
  },
  {
    "Id": 5145,
    "Nombremunicipio": "CARAMANTA",
    "Iddepartamento": 5,
    "Nombredepartamento": "ANTIOQUIA",
    "Longitud": "-75.6438684536",
    "Latitud": "5.54853040415",
    "Zomac": "NO",
    "Pedet": "NO"
  },
  {
    "Id": 5147,
    "Nombremunicipio": "CAREPA",
    "Iddepartamento": 5,
    "Nombredepartamento": "ANTIOQUIA",
    "Longitud": "-76.6532103356",
    "Latitud": "7.75511634554",
    "Zomac": "SI",
    "Pedet": "SI"
  },
  {
    "Id": 5148,
    "Nombremunicipio": "EL CARMEN DE VIBORAL",
    "Iddepartamento": 5,
    "Nombredepartamento": "ANTIOQUIA",
    "Longitud": "-75.3353624585",
    "Latitud": "6.08455151564",
    "Zomac": "NO",
    "Pedet": "NO"
  },
  {
    "Id": 5150,
    "Nombremunicipio": "CAROLINA",
    "Iddepartamento": 5,
    "Nombredepartamento": "ANTIOQUIA",
    "Longitud": "-75.2831701138",
    "Latitud": "6.72597714593",
    "Zomac": "NO",
    "Pedet": "NO"
  },
  {
    "Id": 5154,
    "Nombremunicipio": "CAUCASIA",
    "Iddepartamento": 5,
    "Nombredepartamento": "ANTIOQUIA",
    "Longitud": "-75.1982903265",
    "Latitud": "7.97736233321",
    "Zomac": "SI",
    "Pedet": "SI"
  },
  {
    "Id": 5172,
    "Nombremunicipio": "CHIGORODO",
    "Iddepartamento": 5,
    "Nombredepartamento": "ANTIOQUIA",
    "Longitud": "-76.6812163995",
    "Latitud": "7.66630043881",
    "Zomac": "SI",
    "Pedet": "SI"
  },
  {
    "Id": 5190,
    "Nombremunicipio": "CISNEROS",
    "Iddepartamento": 5,
    "Nombredepartamento": "ANTIOQUIA",
    "Longitud": "-75.0872076079",
    "Latitud": "6.53776195685",
    "Zomac": "NO",
    "Pedet": "NO"
  },
  {
    "Id": 5197,
    "Nombremunicipio": "COCORNA",
    "Iddepartamento": 5,
    "Nombredepartamento": "ANTIOQUIA",
    "Longitud": "-75.185481011",
    "Latitud": "6.05830633507",
    "Zomac": "SI",
    "Pedet": "NO"
  },
  {
    "Id": 5206,
    "Nombremunicipio": "CONCEPCION",
    "Iddepartamento": 5,
    "Nombredepartamento": "ANTIOQUIA",
    "Longitud": "-75.2576027037",
    "Latitud": "6.39434709534",
    "Zomac": "SI",
    "Pedet": "NO"
  },
  {
    "Id": 5209,
    "Nombremunicipio": "CONCORDIA",
    "Iddepartamento": 5,
    "Nombredepartamento": "ANTIOQUIA",
    "Longitud": "-75.9075047222",
    "Latitud": "6.04656857348",
    "Zomac": "NO",
    "Pedet": "NO"
  },
  {
    "Id": 5212,
    "Nombremunicipio": "COPACABANA",
    "Iddepartamento": 5,
    "Nombredepartamento": "ANTIOQUIA",
    "Longitud": "-75.5093439031",
    "Latitud": "6.34864054523",
    "Zomac": "NO",
    "Pedet": "NO"
  },
  {
    "Id": 5234,
    "Nombremunicipio": "DABEIBA",
    "Iddepartamento": 5,
    "Nombredepartamento": "ANTIOQUIA",
    "Longitud": "-76.2629766474",
    "Latitud": "7.00032193981",
    "Zomac": "SI",
    "Pedet": "SI"
  },
  {
    "Id": 5237,
    "Nombremunicipio": "DONMATIAS",
    "Iddepartamento": 5,
    "Nombredepartamento": "ANTIOQUIA",
    "Longitud": "-75.3927240596",
    "Latitud": "6.48446995712",
    "Zomac": "NO",
    "Pedet": "NO"
  },
  {
    "Id": 5240,
    "Nombremunicipio": "EBEJICO",
    "Iddepartamento": 5,
    "Nombredepartamento": "ANTIOQUIA",
    "Longitud": "-75.7662204715",
    "Latitud": "6.32605665759",
    "Zomac": "NO",
    "Pedet": "NO"
  },
  {
    "Id": 5250,
    "Nombremunicipio": "EL BAGRE",
    "Iddepartamento": 5,
    "Nombredepartamento": "ANTIOQUIA",
    "Longitud": "-74.799097289",
    "Latitud": "7.5975217942",
    "Zomac": "SI",
    "Pedet": "SI"
  },
  {
    "Id": 5264,
    "Nombremunicipio": "ENTRERRIOS",
    "Iddepartamento": 5,
    "Nombredepartamento": "ANTIOQUIA",
    "Longitud": "-75.5178008012",
    "Latitud": "6.56648144846",
    "Zomac": "NO",
    "Pedet": "NO"
  },
  {
    "Id": 5266,
    "Nombremunicipio": "ENVIGADO",
    "Iddepartamento": 5,
    "Nombredepartamento": "ANTIOQUIA",
    "Longitud": "-75.5830101409",
    "Latitud": "6.16700455162",
    "Zomac": "NO",
    "Pedet": "NO"
  },
  {
    "Id": 5282,
    "Nombremunicipio": "FREDONIA",
    "Iddepartamento": 5,
    "Nombredepartamento": "ANTIOQUIA",
    "Longitud": "-75.6705063969",
    "Latitud": "5.92436800588",
    "Zomac": "NO",
    "Pedet": "NO"
  },
  {
    "Id": 5284,
    "Nombremunicipio": "FRONTINO",
    "Iddepartamento": 5,
    "Nombredepartamento": "ANTIOQUIA",
    "Longitud": "-76.1307651388",
    "Latitud": "6.77606591161",
    "Zomac": "SI",
    "Pedet": "NO"
  },
  {
    "Id": 5306,
    "Nombremunicipio": "GIRALDO",
    "Iddepartamento": 5,
    "Nombredepartamento": "ANTIOQUIA",
    "Longitud": "-75.9521575645",
    "Latitud": "6.68080801628",
    "Zomac": "NO",
    "Pedet": "NO"
  },
  {
    "Id": 5308,
    "Nombremunicipio": "GIRARDOTA",
    "Iddepartamento": 5,
    "Nombredepartamento": "ANTIOQUIA",
    "Longitud": "-75.444462208",
    "Latitud": "6.37961383411",
    "Zomac": "NO",
    "Pedet": "NO"
  },
  {
    "Id": 5310,
    "Nombremunicipio": "GOMEZ PLATA",
    "Iddepartamento": 5,
    "Nombredepartamento": "ANTIOQUIA",
    "Longitud": "-75.2200381981",
    "Latitud": "6.68328758565",
    "Zomac": "NO",
    "Pedet": "NO"
  },
  {
    "Id": 5313,
    "Nombremunicipio": "GRANADA",
    "Iddepartamento": 5,
    "Nombredepartamento": "ANTIOQUIA",
    "Longitud": "-75.1844450829",
    "Latitud": "6.14289666655",
    "Zomac": "SI",
    "Pedet": "NO"
  },
  {
    "Id": 5315,
    "Nombremunicipio": "GUADALUPE",
    "Iddepartamento": 5,
    "Nombredepartamento": "ANTIOQUIA",
    "Longitud": "-75.2400185907",
    "Latitud": "6.81426345539",
    "Zomac": "SI",
    "Pedet": "NO"
  },
  {
    "Id": 5318,
    "Nombremunicipio": "GUARNE",
    "Iddepartamento": 5,
    "Nombredepartamento": "ANTIOQUIA",
    "Longitud": "-75.441653922",
    "Latitud": "6.2780640767",
    "Zomac": "NO",
    "Pedet": "NO"
  },
  {
    "Id": 5321,
    "Nombremunicipio": "GUATAPE",
    "Iddepartamento": 5,
    "Nombredepartamento": "ANTIOQUIA",
    "Longitud": "-75.1622925892",
    "Latitud": "6.23259270739",
    "Zomac": "NO",
    "Pedet": "NO"
  },
  {
    "Id": 5347,
    "Nombremunicipio": "HELICONIA",
    "Iddepartamento": 5,
    "Nombredepartamento": "ANTIOQUIA",
    "Longitud": "-75.7343223837",
    "Latitud": "6.20675746119",
    "Zomac": "NO",
    "Pedet": "NO"
  },
  {
    "Id": 5353,
    "Nombremunicipio": "HISPANIA",
    "Iddepartamento": 5,
    "Nombredepartamento": "ANTIOQUIA",
    "Longitud": "-75.9065882653",
    "Latitud": "5.79946157519",
    "Zomac": "NO",
    "Pedet": "NO"
  },
  {
    "Id": 5360,
    "Nombremunicipio": "ITAGUI",
    "Iddepartamento": 5,
    "Nombredepartamento": "ANTIOQUIA",
    "Longitud": "-75.6143587142",
    "Latitud": "6.16959762893",
    "Zomac": "NO",
    "Pedet": "NO"
  },
  {
    "Id": 5361,
    "Nombremunicipio": "ITUANGO",
    "Iddepartamento": 5,
    "Nombredepartamento": "ANTIOQUIA",
    "Longitud": "-75.7646731654",
    "Latitud": "7.17162902996",
    "Zomac": "SI",
    "Pedet": "SI"
  },
  {
    "Id": 5364,
    "Nombremunicipio": "JARDIN",
    "Iddepartamento": 5,
    "Nombredepartamento": "ANTIOQUIA",
    "Longitud": "-75.8189809206",
    "Latitud": "5.59754174066",
    "Zomac": "NO",
    "Pedet": "NO"
  },
  {
    "Id": 5368,
    "Nombremunicipio": "JERICO",
    "Iddepartamento": 5,
    "Nombredepartamento": "ANTIOQUIA",
    "Longitud": "-75.7854985547",
    "Latitud": "5.78974793122",
    "Zomac": "NO",
    "Pedet": "NO"
  },
  {
    "Id": 5376,
    "Nombremunicipio": "LA CEJA",
    "Iddepartamento": 5,
    "Nombredepartamento": "ANTIOQUIA",
    "Longitud": "-75.4294308862",
    "Latitud": "6.02805574408",
    "Zomac": "NO",
    "Pedet": "NO"
  },
  {
    "Id": 5380,
    "Nombremunicipio": "LA ESTRELLA",
    "Iddepartamento": 5,
    "Nombredepartamento": "ANTIOQUIA",
    "Longitud": "-75.6451903823",
    "Latitud": "6.15841974028",
    "Zomac": "NO",
    "Pedet": "NO"
  },
  {
    "Id": 5390,
    "Nombremunicipio": "LA PINTADA",
    "Iddepartamento": 5,
    "Nombredepartamento": "ANTIOQUIA",
    "Longitud": "-75.6078102611",
    "Latitud": "5.74380747913",
    "Zomac": "NO",
    "Pedet": "NO"
  },
  {
    "Id": 5400,
    "Nombremunicipio": "LA UNION",
    "Iddepartamento": 5,
    "Nombredepartamento": "ANTIOQUIA",
    "Longitud": "-75.3608659043",
    "Latitud": "5.97386821834",
    "Zomac": "NO",
    "Pedet": "NO"
  },
  {
    "Id": 5411,
    "Nombremunicipio": "LIBORINA",
    "Iddepartamento": 5,
    "Nombredepartamento": "ANTIOQUIA",
    "Longitud": "-75.8128322684",
    "Latitud": "6.67732305342",
    "Zomac": "NO",
    "Pedet": "NO"
  },
  {
    "Id": 5425,
    "Nombremunicipio": "MACEO",
    "Iddepartamento": 5,
    "Nombredepartamento": "ANTIOQUIA",
    "Longitud": "-74.7871614805",
    "Latitud": "6.55211691287",
    "Zomac": "NO",
    "Pedet": "NO"
  },
  {
    "Id": 5440,
    "Nombremunicipio": "MARINILLA",
    "Iddepartamento": 5,
    "Nombredepartamento": "ANTIOQUIA",
    "Longitud": "-75.3394778776",
    "Latitud": "6.17226925482",
    "Zomac": "NO",
    "Pedet": "NO"
  },
  {
    "Id": 5467,
    "Nombremunicipio": "MONTEBELLO",
    "Iddepartamento": 5,
    "Nombredepartamento": "ANTIOQUIA",
    "Longitud": "-75.5235109116",
    "Latitud": "5.94632556697",
    "Zomac": "SI",
    "Pedet": "NO"
  },
  {
    "Id": 5475,
    "Nombremunicipio": "MURINDO",
    "Iddepartamento": 5,
    "Nombredepartamento": "ANTIOQUIA",
    "Longitud": "-76.8174580606",
    "Latitud": "6.9776918531",
    "Zomac": "SI",
    "Pedet": "SI"
  },
  {
    "Id": 5480,
    "Nombremunicipio": "MUTATA",
    "Iddepartamento": 5,
    "Nombredepartamento": "ANTIOQUIA",
    "Longitud": "-76.4358754017",
    "Latitud": "7.24287505724",
    "Zomac": "SI",
    "Pedet": "SI"
  },
  {
    "Id": 5483,
    "Nombremunicipio": "NARINO",
    "Iddepartamento": 5,
    "Nombredepartamento": "ANTIOQUIA",
    "Longitud": "-75.1762613179",
    "Latitud": "5.61077458468",
    "Zomac": "SI",
    "Pedet": "NO"
  },
  {
    "Id": 5490,
    "Nombremunicipio": "NECOCLI",
    "Iddepartamento": 5,
    "Nombredepartamento": "ANTIOQUIA",
    "Longitud": "-76.7845744975",
    "Latitud": "8.42613598349",
    "Zomac": "SI",
    "Pedet": "SI"
  },
  {
    "Id": 5495,
    "Nombremunicipio": "NECHI",
    "Iddepartamento": 5,
    "Nombredepartamento": "ANTIOQUIA",
    "Longitud": "-74.7764701215",
    "Latitud": "8.09412866101",
    "Zomac": "SI",
    "Pedet": "SI"
  },
  {
    "Id": 5501,
    "Nombremunicipio": "OLAYA",
    "Iddepartamento": 5,
    "Nombredepartamento": "ANTIOQUIA",
    "Longitud": "-75.8122987303",
    "Latitud": "6.62752573822",
    "Zomac": "NO",
    "Pedet": "NO"
  },
  {
    "Id": 5541,
    "Nombremunicipio": "PENOL",
    "Iddepartamento": 5,
    "Nombredepartamento": "ANTIOQUIA",
    "Longitud": "-75.2428217137",
    "Latitud": "6.2194505492",
    "Zomac": "NO",
    "Pedet": "NO"
  },
  {
    "Id": 5543,
    "Nombremunicipio": "PEQUE",
    "Iddepartamento": 5,
    "Nombredepartamento": "ANTIOQUIA",
    "Longitud": "-75.9103455573",
    "Latitud": "7.02101791754",
    "Zomac": "NO",
    "Pedet": "NO"
  },
  {
    "Id": 5576,
    "Nombremunicipio": "PUEBLORRICO",
    "Iddepartamento": 5,
    "Nombredepartamento": "ANTIOQUIA",
    "Longitud": "-75.8407735524",
    "Latitud": "5.7917860324",
    "Zomac": "NO",
    "Pedet": "NO"
  },
  {
    "Id": 5579,
    "Nombremunicipio": "PUERTO BERRIO",
    "Iddepartamento": 5,
    "Nombredepartamento": "ANTIOQUIA",
    "Longitud": "-74.4099455275",
    "Latitud": "6.48704114044",
    "Zomac": "SI",
    "Pedet": "NO"
  },
  {
    "Id": 5585,
    "Nombremunicipio": "PUERTO NARE",
    "Iddepartamento": 5,
    "Nombredepartamento": "ANTIOQUIA",
    "Longitud": "-74.5830120144",
    "Latitud": "6.18602482798",
    "Zomac": "NO",
    "Pedet": "NO"
  },
  {
    "Id": 5591,
    "Nombremunicipio": "PUERTO TRIUNFO",
    "Iddepartamento": 5,
    "Nombredepartamento": "ANTIOQUIA",
    "Longitud": "-74.6412629307",
    "Latitud": "5.87121295851",
    "Zomac": "NO",
    "Pedet": "NO"
  },
  {
    "Id": 5604,
    "Nombremunicipio": "REMEDIOS",
    "Iddepartamento": 5,
    "Nombredepartamento": "ANTIOQUIA",
    "Longitud": "-74.695944258",
    "Latitud": "7.0260940527",
    "Zomac": "SI",
    "Pedet": "SI"
  },
  {
    "Id": 5607,
    "Nombremunicipio": "RETIRO",
    "Iddepartamento": 5,
    "Nombredepartamento": "ANTIOQUIA",
    "Longitud": "-75.5013751615",
    "Latitud": "6.06337995392",
    "Zomac": "NO",
    "Pedet": "NO"
  },
  {
    "Id": 5615,
    "Nombremunicipio": "RIONEGRO",
    "Iddepartamento": 5,
    "Nombredepartamento": "ANTIOQUIA",
    "Longitud": "-75.3767693823",
    "Latitud": "6.14722409002",
    "Zomac": "NO",
    "Pedet": "NO"
  },
  {
    "Id": 5628,
    "Nombremunicipio": "SABANALARGA",
    "Iddepartamento": 5,
    "Nombredepartamento": "ANTIOQUIA",
    "Longitud": "-75.8166460917",
    "Latitud": "6.85002588958",
    "Zomac": "NO",
    "Pedet": "NO"
  },
  {
    "Id": 5631,
    "Nombremunicipio": "SABANETA",
    "Iddepartamento": 5,
    "Nombredepartamento": "ANTIOQUIA",
    "Longitud": "-75.6155852932",
    "Latitud": "6.15097018093",
    "Zomac": "NO",
    "Pedet": "NO"
  },
  {
    "Id": 5642,
    "Nombremunicipio": "SALGAR",
    "Iddepartamento": 5,
    "Nombredepartamento": "ANTIOQUIA",
    "Longitud": "-75.9820485436",
    "Latitud": "5.96564031015",
    "Zomac": "SI",
    "Pedet": "NO"
  },
  {
    "Id": 5647,
    "Nombremunicipio": "SAN ANDRES DE CUERQUIA",
    "Iddepartamento": 5,
    "Nombredepartamento": "ANTIOQUIA",
    "Longitud": "-75.6747325261",
    "Latitud": "6.9168085123",
    "Zomac": "SI",
    "Pedet": "NO"
  },
  {
    "Id": 5649,
    "Nombremunicipio": "SAN CARLOS",
    "Iddepartamento": 5,
    "Nombredepartamento": "ANTIOQUIA",
    "Longitud": "-74.9879525625",
    "Latitud": "6.18799156886",
    "Zomac": "SI",
    "Pedet": "NO"
  },
  {
    "Id": 5652,
    "Nombremunicipio": "SAN FRANCISCO",
    "Iddepartamento": 5,
    "Nombredepartamento": "ANTIOQUIA",
    "Longitud": "-75.1026869656",
    "Latitud": "5.96407913115",
    "Zomac": "SI",
    "Pedet": "NO"
  },
  {
    "Id": 5656,
    "Nombremunicipio": "SAN JERONIMO",
    "Iddepartamento": 5,
    "Nombredepartamento": "ANTIOQUIA",
    "Longitud": "-75.7270005793",
    "Latitud": "6.44806660759",
    "Zomac": "NO",
    "Pedet": "NO"
  },
  {
    "Id": 5658,
    "Nombremunicipio": "SAN JOSE DE LA MONTANA",
    "Iddepartamento": 5,
    "Nombredepartamento": "ANTIOQUIA",
    "Longitud": "-75.6833516268",
    "Latitud": "6.85009029903",
    "Zomac": "NO",
    "Pedet": "NO"
  },
  {
    "Id": 5659,
    "Nombremunicipio": "SAN JUAN DE URABA",
    "Iddepartamento": 5,
    "Nombredepartamento": "ANTIOQUIA",
    "Longitud": "-76.5287943448",
    "Latitud": "8.75934180098",
    "Zomac": "NO",
    "Pedet": "NO"
  },
  {
    "Id": 5660,
    "Nombremunicipio": "SAN LUIS",
    "Iddepartamento": 5,
    "Nombredepartamento": "ANTIOQUIA",
    "Longitud": "-74.993641001",
    "Latitud": "6.04298328495",
    "Zomac": "SI",
    "Pedet": "NO"
  },
  {
    "Id": 5664,
    "Nombremunicipio": "SAN PEDRO DE LOS MILAGROS",
    "Iddepartamento": 5,
    "Nombredepartamento": "ANTIOQUIA",
    "Longitud": "-75.5567191507",
    "Latitud": "6.46013859862",
    "Zomac": "NO",
    "Pedet": "NO"
  },
  {
    "Id": 5665,
    "Nombremunicipio": "SAN PEDRO DE URABA",
    "Iddepartamento": 5,
    "Nombredepartamento": "ANTIOQUIA",
    "Longitud": "-76.380577886",
    "Latitud": "8.27688666409",
    "Zomac": "SI",
    "Pedet": "SI"
  },
  {
    "Id": 5667,
    "Nombremunicipio": "SAN RAFAEL",
    "Iddepartamento": 5,
    "Nombredepartamento": "ANTIOQUIA",
    "Longitud": "-75.0279838158",
    "Latitud": "6.29375487579",
    "Zomac": "SI",
    "Pedet": "NO"
  },
  {
    "Id": 5670,
    "Nombremunicipio": "SAN ROQUE",
    "Iddepartamento": 5,
    "Nombredepartamento": "ANTIOQUIA",
    "Longitud": "-75.019157568",
    "Latitud": "6.48594893629",
    "Zomac": "NO",
    "Pedet": "NO"
  },
  {
    "Id": 5674,
    "Nombremunicipio": "SAN VICENTE FERRER",
    "Iddepartamento": 5,
    "Nombredepartamento": "ANTIOQUIA",
    "Longitud": "-75.3326138129",
    "Latitud": "6.28215585171",
    "Zomac": "NO",
    "Pedet": "NO"
  },
  {
    "Id": 5679,
    "Nombremunicipio": "SANTA BARBARA",
    "Iddepartamento": 5,
    "Nombredepartamento": "ANTIOQUIA",
    "Longitud": "-75.5673517822",
    "Latitud": "5.87553339785",
    "Zomac": "NO",
    "Pedet": "NO"
  },
  {
    "Id": 5686,
    "Nombremunicipio": "SANTA ROSA DE OSOS",
    "Iddepartamento": 5,
    "Nombredepartamento": "ANTIOQUIA",
    "Longitud": "-75.4607450191",
    "Latitud": "6.64332600099",
    "Zomac": "NO",
    "Pedet": "NO"
  },
  {
    "Id": 5690,
    "Nombremunicipio": "SANTO DOMINGO",
    "Iddepartamento": 5,
    "Nombredepartamento": "ANTIOQUIA",
    "Longitud": "-75.1677837076",
    "Latitud": "6.47484329288",
    "Zomac": "SI",
    "Pedet": "NO"
  },
  {
    "Id": 5697,
    "Nombremunicipio": "EL SANTUARIO",
    "Iddepartamento": 5,
    "Nombredepartamento": "ANTIOQUIA",
    "Longitud": "-75.2658497944",
    "Latitud": "6.13704685813",
    "Zomac": "NO",
    "Pedet": "NO"
  },
  {
    "Id": 5736,
    "Nombremunicipio": "SEGOVIA",
    "Iddepartamento": 5,
    "Nombredepartamento": "ANTIOQUIA",
    "Longitud": "-74.7015910715",
    "Latitud": "7.07963967923",
    "Zomac": "SI",
    "Pedet": "SI"
  },
  {
    "Id": 5756,
    "Nombremunicipio": "SONSON",
    "Iddepartamento": 5,
    "Nombredepartamento": "ANTIOQUIA",
    "Longitud": "-75.3093951469",
    "Latitud": "5.71481164114",
    "Zomac": "SI",
    "Pedet": "NO"
  },
  {
    "Id": 5761,
    "Nombremunicipio": "SOPETRAN",
    "Iddepartamento": 5,
    "Nombredepartamento": "ANTIOQUIA",
    "Longitud": "-75.7472563632",
    "Latitud": "6.50098577268",
    "Zomac": "NO",
    "Pedet": "NO"
  },
  {
    "Id": 5789,
    "Nombremunicipio": "TAMESIS",
    "Iddepartamento": 5,
    "Nombredepartamento": "ANTIOQUIA",
    "Longitud": "-75.7143206871",
    "Latitud": "5.66446663613",
    "Zomac": "NO",
    "Pedet": "NO"
  },
  {
    "Id": 5790,
    "Nombremunicipio": "TARAZA",
    "Iddepartamento": 5,
    "Nombredepartamento": "ANTIOQUIA",
    "Longitud": "-75.4014059617",
    "Latitud": "7.58012081462",
    "Zomac": "SI",
    "Pedet": "SI"
  },
  {
    "Id": 5792,
    "Nombremunicipio": "TARSO",
    "Iddepartamento": 5,
    "Nombredepartamento": "ANTIOQUIA",
    "Longitud": "-75.8232144828",
    "Latitud": "5.8632957508",
    "Zomac": "NO",
    "Pedet": "NO"
  },
  {
    "Id": 5809,
    "Nombremunicipio": "TITIRIBI",
    "Iddepartamento": 5,
    "Nombredepartamento": "ANTIOQUIA",
    "Longitud": "-75.7915490064",
    "Latitud": "6.06098008157",
    "Zomac": "NO",
    "Pedet": "NO"
  },
  {
    "Id": 5819,
    "Nombremunicipio": "TOLEDO",
    "Iddepartamento": 5,
    "Nombredepartamento": "ANTIOQUIA",
    "Longitud": "-75.6914424126",
    "Latitud": "7.01015402899",
    "Zomac": "SI",
    "Pedet": "NO"
  },
  {
    "Id": 5837,
    "Nombremunicipio": "TURBO",
    "Iddepartamento": 5,
    "Nombredepartamento": "ANTIOQUIA",
    "Longitud": "-76.7291584376",
    "Latitud": "8.08911641099",
    "Zomac": "SI",
    "Pedet": "SI"
  },
  {
    "Id": 5842,
    "Nombremunicipio": "URAMITA",
    "Iddepartamento": 5,
    "Nombredepartamento": "ANTIOQUIA",
    "Longitud": "-76.1734091601",
    "Latitud": "6.89849411111",
    "Zomac": "SI",
    "Pedet": "NO"
  },
  {
    "Id": 5847,
    "Nombremunicipio": "URRAO",
    "Iddepartamento": 5,
    "Nombredepartamento": "ANTIOQUIA",
    "Longitud": "-76.133948666",
    "Latitud": "6.31731959103",
    "Zomac": "SI",
    "Pedet": "NO"
  },
  {
    "Id": 5854,
    "Nombremunicipio": "VALDIVIA",
    "Iddepartamento": 5,
    "Nombredepartamento": "ANTIOQUIA",
    "Longitud": "-75.4391984392",
    "Latitud": "7.16533999984",
    "Zomac": "SI",
    "Pedet": "SI"
  },
  {
    "Id": 5856,
    "Nombremunicipio": "VALPARAISO",
    "Iddepartamento": 5,
    "Nombredepartamento": "ANTIOQUIA",
    "Longitud": "-75.624458885",
    "Latitud": "5.61455072464",
    "Zomac": "NO",
    "Pedet": "NO"
  },
  {
    "Id": 5858,
    "Nombremunicipio": "VEGACHI",
    "Iddepartamento": 5,
    "Nombredepartamento": "ANTIOQUIA",
    "Longitud": "-74.7987269491",
    "Latitud": "6.77344631959",
    "Zomac": "SI",
    "Pedet": "NO"
  },
  {
    "Id": 5861,
    "Nombremunicipio": "VENECIA",
    "Iddepartamento": 5,
    "Nombredepartamento": "ANTIOQUIA",
    "Longitud": "-75.7355032394",
    "Latitud": "5.96473358309",
    "Zomac": "NO",
    "Pedet": "NO"
  },
  {
    "Id": 5873,
    "Nombremunicipio": "VIGIA DEL FUERTE",
    "Iddepartamento": 5,
    "Nombredepartamento": "ANTIOQUIA",
    "Longitud": "-76.8961869797",
    "Latitud": "6.58811984466",
    "Zomac": "SI",
    "Pedet": "SI"
  },
  {
    "Id": 5885,
    "Nombremunicipio": "YALI",
    "Iddepartamento": 5,
    "Nombredepartamento": "ANTIOQUIA",
    "Longitud": "-74.8400467259",
    "Latitud": "6.67656727216",
    "Zomac": "SI",
    "Pedet": "NO"
  },
  {
    "Id": 5887,
    "Nombremunicipio": "YARUMAL",
    "Iddepartamento": 5,
    "Nombredepartamento": "ANTIOQUIA",
    "Longitud": "-75.4188331376",
    "Latitud": "6.96387235163",
    "Zomac": "SI",
    "Pedet": "NO"
  },
  {
    "Id": 5890,
    "Nombremunicipio": "YOLOMBO",
    "Iddepartamento": 5,
    "Nombredepartamento": "ANTIOQUIA",
    "Longitud": "-75.0133505772",
    "Latitud": "6.59459243359",
    "Zomac": "SI",
    "Pedet": "NO"
  },
  {
    "Id": 5893,
    "Nombremunicipio": "YONDO",
    "Iddepartamento": 5,
    "Nombredepartamento": "ANTIOQUIA",
    "Longitud": "-73.9124579456",
    "Latitud": "7.00394073438",
    "Zomac": "SI",
    "Pedet": "SI"
  },
  {
    "Id": 5895,
    "Nombremunicipio": "ZARAGOZA",
    "Iddepartamento": 5,
    "Nombredepartamento": "ANTIOQUIA",
    "Longitud": "-74.8670747123",
    "Latitud": "7.48858307465",
    "Zomac": "SI",
    "Pedet": "SI"
  },
  {
    "Id": 8001,
    "Nombremunicipio": "BARRANQUILLA",
    "Iddepartamento": 8,
    "Nombredepartamento": "ATLANTICO",
    "Longitud": "-74.7952590482",
    "Latitud": "10.9759268186",
    "Zomac": "NO",
    "Pedet": "NO"
  },
  {
    "Id": 8078,
    "Nombremunicipio": "BARANOA",
    "Iddepartamento": 8,
    "Nombredepartamento": "ATLANTICO",
    "Longitud": "-74.9160998139",
    "Latitud": "10.7948804772",
    "Zomac": "NO",
    "Pedet": "NO"
  },
  {
    "Id": 8137,
    "Nombremunicipio": "CAMPO DE LA CRUZ",
    "Iddepartamento": 8,
    "Nombredepartamento": "ATLANTICO",
    "Longitud": "-74.8831517334",
    "Latitud": "10.3792401344",
    "Zomac": "NO",
    "Pedet": "NO"
  },
  {
    "Id": 8141,
    "Nombremunicipio": "CANDELARIA",
    "Iddepartamento": 8,
    "Nombredepartamento": "ATLANTICO",
    "Longitud": "-74.879912602",
    "Latitud": "10.4612172348",
    "Zomac": "NO",
    "Pedet": "NO"
  },
  {
    "Id": 8296,
    "Nombremunicipio": "GALAPA",
    "Iddepartamento": 8,
    "Nombredepartamento": "ATLANTICO",
    "Longitud": "-74.8669380999",
    "Latitud": "10.9196410045",
    "Zomac": "NO",
    "Pedet": "NO"
  },
  {
    "Id": 8372,
    "Nombremunicipio": "JUAN DE ACOSTA",
    "Iddepartamento": 8,
    "Nombredepartamento": "ATLANTICO",
    "Longitud": "-75.0407991406",
    "Latitud": "10.8301822336",
    "Zomac": "NO",
    "Pedet": "NO"
  },
  {
    "Id": 8421,
    "Nombremunicipio": "LURUACO",
    "Iddepartamento": 8,
    "Nombredepartamento": "ATLANTICO",
    "Longitud": "-75.1422461432",
    "Latitud": "10.6111164196",
    "Zomac": "NO",
    "Pedet": "NO"
  },
  {
    "Id": 8433,
    "Nombremunicipio": "MALAMBO",
    "Iddepartamento": 8,
    "Nombredepartamento": "ATLANTICO",
    "Longitud": "-74.7742405717",
    "Latitud": "10.8562872414",
    "Zomac": "NO",
    "Pedet": "NO"
  },
  {
    "Id": 8436,
    "Nombremunicipio": "MANATI",
    "Iddepartamento": 8,
    "Nombredepartamento": "ATLANTICO",
    "Longitud": "-74.9570349911",
    "Latitud": "10.4489623783",
    "Zomac": "NO",
    "Pedet": "NO"
  },
  {
    "Id": 8520,
    "Nombremunicipio": "PALMAR DE VARELA",
    "Iddepartamento": 8,
    "Nombredepartamento": "ATLANTICO",
    "Longitud": "-74.7547578946",
    "Latitud": "10.7385832606",
    "Zomac": "NO",
    "Pedet": "NO"
  },
  {
    "Id": 8549,
    "Nombremunicipio": "PIOJO",
    "Iddepartamento": 8,
    "Nombredepartamento": "ATLANTICO",
    "Longitud": "-75.1074701179",
    "Latitud": "10.7493444169",
    "Zomac": "NO",
    "Pedet": "NO"
  },
  {
    "Id": 8558,
    "Nombremunicipio": "POLONUEVO",
    "Iddepartamento": 8,
    "Nombredepartamento": "ATLANTICO",
    "Longitud": "-74.8542572499",
    "Latitud": "10.7777245089",
    "Zomac": "NO",
    "Pedet": "NO"
  },
  {
    "Id": 8560,
    "Nombremunicipio": "PONEDERA",
    "Iddepartamento": 8,
    "Nombredepartamento": "ATLANTICO",
    "Longitud": "-74.7539004396",
    "Latitud": "10.6417959278",
    "Zomac": "NO",
    "Pedet": "NO"
  },
  {
    "Id": 8573,
    "Nombremunicipio": "PUERTO COLOMBIA",
    "Iddepartamento": 8,
    "Nombredepartamento": "ATLANTICO",
    "Longitud": "-74.851963565",
    "Latitud": "11.0229400539",
    "Zomac": "NO",
    "Pedet": "NO"
  },
  {
    "Id": 8606,
    "Nombremunicipio": "REPELON",
    "Iddepartamento": 8,
    "Nombredepartamento": "ATLANTICO",
    "Longitud": "-75.1254816202",
    "Latitud": "10.4933416667",
    "Zomac": "NO",
    "Pedet": "NO"
  },
  {
    "Id": 8634,
    "Nombremunicipio": "SABANAGRANDE",
    "Iddepartamento": 8,
    "Nombredepartamento": "ATLANTICO",
    "Longitud": "-74.758507205",
    "Latitud": "10.7910759492",
    "Zomac": "NO",
    "Pedet": "NO"
  },
  {
    "Id": 8638,
    "Nombremunicipio": "SABANALARGA",
    "Iddepartamento": 8,
    "Nombredepartamento": "ATLANTICO",
    "Longitud": "-74.9210936808",
    "Latitud": "10.6328352305",
    "Zomac": "NO",
    "Pedet": "NO"
  },
  {
    "Id": 8675,
    "Nombremunicipio": "SANTA LUCIA",
    "Iddepartamento": 8,
    "Nombredepartamento": "ATLANTICO",
    "Longitud": "-74.9589714527",
    "Latitud": "10.3232732128",
    "Zomac": "NO",
    "Pedet": "NO"
  },
  {
    "Id": 8685,
    "Nombremunicipio": "SANTO TOMAS",
    "Iddepartamento": 8,
    "Nombredepartamento": "ATLANTICO",
    "Longitud": "-74.7541118585",
    "Latitud": "10.756056293",
    "Zomac": "NO",
    "Pedet": "NO"
  },
  {
    "Id": 8758,
    "Nombremunicipio": "SOLEDAD",
    "Iddepartamento": 8,
    "Nombredepartamento": "ATLANTICO",
    "Longitud": "-74.784833384",
    "Latitud": "10.9101744673",
    "Zomac": "NO",
    "Pedet": "NO"
  },
  {
    "Id": 8770,
    "Nombremunicipio": "SUAN",
    "Iddepartamento": 8,
    "Nombredepartamento": "ATLANTICO",
    "Longitud": "-74.8816874806",
    "Latitud": "10.335431376",
    "Zomac": "NO",
    "Pedet": "NO"
  },
  {
    "Id": 8832,
    "Nombremunicipio": "TUBARA",
    "Iddepartamento": 8,
    "Nombredepartamento": "ATLANTICO",
    "Longitud": "-74.9786794721",
    "Latitud": "10.873647738",
    "Zomac": "NO",
    "Pedet": "NO"
  },
  {
    "Id": 8849,
    "Nombremunicipio": "USIACURI",
    "Iddepartamento": 8,
    "Nombredepartamento": "ATLANTICO",
    "Longitud": "-74.9769826088",
    "Latitud": "10.7429781944",
    "Zomac": "NO",
    "Pedet": "NO"
  },
  {
    "Id": 11001,
    "Nombremunicipio": "BOGOTA, D.C.",
    "Iddepartamento": 11,
    "Nombredepartamento": "BOGOTA, D. C.",
    "Longitud": "-74.1073590032",
    "Latitud": "4.65017303026",
    "Zomac": "NO",
    "Pedet": "NO"
  },
  {
    "Id": 13001,
    "Nombremunicipio": "CARTAGENA DE INDIAS",
    "Iddepartamento": 13,
    "Nombredepartamento": "BOLIVAR",
    "Longitud": "-75.496431028",
    "Latitud": "10.3849855226",
    "Zomac": "NO",
    "Pedet": "NO"
  },
  {
    "Id": 13006,
    "Nombremunicipio": "ACHI",
    "Iddepartamento": 13,
    "Nombredepartamento": "BOLIVAR",
    "Longitud": "-74.5570639545",
    "Latitud": "8.56911039303",
    "Zomac": "NO",
    "Pedet": "NO"
  },
  {
    "Id": 13030,
    "Nombremunicipio": "ALTOS DEL ROSARIO",
    "Iddepartamento": 13,
    "Nombredepartamento": "BOLIVAR",
    "Longitud": "-74.1650494459",
    "Latitud": "8.79160639942",
    "Zomac": "NO",
    "Pedet": "NO"
  },
  {
    "Id": 13042,
    "Nombremunicipio": "ARENAL",
    "Iddepartamento": 13,
    "Nombredepartamento": "BOLIVAR",
    "Longitud": "-73.9411158255",
    "Latitud": "8.45863043784",
    "Zomac": "SI",
    "Pedet": "SI"
  },
  {
    "Id": 13052,
    "Nombremunicipio": "ARJONA",
    "Iddepartamento": 13,
    "Nombredepartamento": "BOLIVAR",
    "Longitud": "-75.3444884486",
    "Latitud": "10.2566315237",
    "Zomac": "NO",
    "Pedet": "NO"
  },
  {
    "Id": 13062,
    "Nombremunicipio": "ARROYOHONDO",
    "Iddepartamento": 13,
    "Nombredepartamento": "BOLIVAR",
    "Longitud": "-75.0171926779",
    "Latitud": "10.2427984821",
    "Zomac": "NO",
    "Pedet": "NO"
  },
  {
    "Id": 13074,
    "Nombremunicipio": "BARRANCO DE LOBA",
    "Iddepartamento": 13,
    "Nombredepartamento": "BOLIVAR",
    "Longitud": "-74.1052242834",
    "Latitud": "8.94773015812",
    "Zomac": "NO",
    "Pedet": "NO"
  },
  {
    "Id": 13140,
    "Nombremunicipio": "CALAMAR",
    "Iddepartamento": 13,
    "Nombredepartamento": "BOLIVAR",
    "Longitud": "-74.9136292818",
    "Latitud": "10.2519633588",
    "Zomac": "NO",
    "Pedet": "NO"
  },
  {
    "Id": 13160,
    "Nombremunicipio": "CANTAGALLO",
    "Iddepartamento": 13,
    "Nombredepartamento": "BOLIVAR",
    "Longitud": "-73.9146502355",
    "Latitud": "7.37831560048",
    "Zomac": "SI",
    "Pedet": "SI"
  },
  {
    "Id": 13188,
    "Nombremunicipio": "CICUCO",
    "Iddepartamento": 13,
    "Nombredepartamento": "BOLIVAR",
    "Longitud": "-74.6454941915",
    "Latitud": "9.27474559753",
    "Zomac": "NO",
    "Pedet": "NO"
  },
  {
    "Id": 13212,
    "Nombremunicipio": "CORDOBA",
    "Iddepartamento": 13,
    "Nombredepartamento": "BOLIVAR",
    "Longitud": "-74.8274626321",
    "Latitud": "9.58690791767",
    "Zomac": "SI",
    "Pedet": "SI"
  },
  {
    "Id": 13222,
    "Nombremunicipio": "CLEMENCIA",
    "Iddepartamento": 13,
    "Nombredepartamento": "BOLIVAR",
    "Longitud": "-75.3285120131",
    "Latitud": "10.567541769",
    "Zomac": "NO",
    "Pedet": "NO"
  },
  {
    "Id": 13244,
    "Nombremunicipio": "EL CARMEN DE BOLIVAR",
    "Iddepartamento": 13,
    "Nombredepartamento": "BOLIVAR",
    "Longitud": "-75.1212157328",
    "Latitud": "9.71857986447",
    "Zomac": "SI",
    "Pedet": "SI"
  },
  {
    "Id": 13248,
    "Nombremunicipio": "EL GUAMO",
    "Iddepartamento": 13,
    "Nombredepartamento": "BOLIVAR",
    "Longitud": "-74.976113566",
    "Latitud": "10.0309129767",
    "Zomac": "SI",
    "Pedet": "SI"
  },
  {
    "Id": 13268,
    "Nombremunicipio": "EL PENON",
    "Iddepartamento": 13,
    "Nombredepartamento": "BOLIVAR",
    "Longitud": "-73.9494155005",
    "Latitud": "8.98821947575",
    "Zomac": "NO",
    "Pedet": "NO"
  },
  {
    "Id": 13300,
    "Nombremunicipio": "HATILLO DE LOBA",
    "Iddepartamento": 13,
    "Nombredepartamento": "BOLIVAR",
    "Longitud": "-74.0783647121",
    "Latitud": "8.95561489131",
    "Zomac": "NO",
    "Pedet": "NO"
  },
  {
    "Id": 13430,
    "Nombremunicipio": "MAGANGUE",
    "Iddepartamento": 13,
    "Nombredepartamento": "BOLIVAR",
    "Longitud": "-74.7701745713",
    "Latitud": "9.26856379448",
    "Zomac": "NO",
    "Pedet": "NO"
  },
  {
    "Id": 13433,
    "Nombremunicipio": "MAHATES",
    "Iddepartamento": 13,
    "Nombredepartamento": "BOLIVAR",
    "Longitud": "-75.1913365877",
    "Latitud": "10.2332545168",
    "Zomac": "NO",
    "Pedet": "NO"
  },
  {
    "Id": 13440,
    "Nombremunicipio": "MARGARITA",
    "Iddepartamento": 13,
    "Nombredepartamento": "BOLIVAR",
    "Longitud": "-74.2808217575",
    "Latitud": "9.15555047248",
    "Zomac": "NO",
    "Pedet": "NO"
  },
  {
    "Id": 13442,
    "Nombremunicipio": "MARIA LA BAJA",
    "Iddepartamento": 13,
    "Nombredepartamento": "BOLIVAR",
    "Longitud": "-75.3007593485",
    "Latitud": "9.98264551708",
    "Zomac": "SI",
    "Pedet": "SI"
  },
  {
    "Id": 13458,
    "Nombremunicipio": "MONTECRISTO",
    "Iddepartamento": 13,
    "Nombredepartamento": "BOLIVAR",
    "Longitud": "-74.471703852",
    "Latitud": "8.29713627502",
    "Zomac": "SI",
    "Pedet": "NO"
  },
  {
    "Id": 13468,
    "Nombremunicipio": "SANTA CRUZ DE MOMPOX",
    "Iddepartamento": 13,
    "Nombredepartamento": "BOLIVAR",
    "Longitud": "-74.4278664177",
    "Latitud": "9.24388375713",
    "Zomac": "NO",
    "Pedet": "NO"
  },
  {
    "Id": 13473,
    "Nombremunicipio": "MORALES",
    "Iddepartamento": 13,
    "Nombredepartamento": "BOLIVAR",
    "Longitud": "-73.8681404847",
    "Latitud": "8.27630677134",
    "Zomac": "SI",
    "Pedet": "SI"
  },
  {
    "Id": 13490,
    "Nombremunicipio": "NOROSI",
    "Iddepartamento": 13,
    "Nombredepartamento": "BOLIVAR",
    "Longitud": "-74.0380591313",
    "Latitud": "8.52598078728",
    "Zomac": "NO",
    "Pedet": "NO"
  },
  {
    "Id": 13549,
    "Nombremunicipio": "PINILLOS",
    "Iddepartamento": 13,
    "Nombredepartamento": "BOLIVAR",
    "Longitud": "-74.4624035436",
    "Latitud": "8.91545223353",
    "Zomac": "NO",
    "Pedet": "NO"
  },
  {
    "Id": 13580,
    "Nombremunicipio": "REGIDOR",
    "Iddepartamento": 13,
    "Nombredepartamento": "BOLIVAR",
    "Longitud": "-73.8216380238",
    "Latitud": "8.66625772801",
    "Zomac": "NO",
    "Pedet": "NO"
  },
  {
    "Id": 13600,
    "Nombremunicipio": "RIO VIEJO",
    "Iddepartamento": 13,
    "Nombredepartamento": "BOLIVAR",
    "Longitud": "-73.8399454858",
    "Latitud": "8.58762771185",
    "Zomac": "SI",
    "Pedet": "NO"
  },
  {
    "Id": 13620,
    "Nombremunicipio": "SAN CRISTOBAL",
    "Iddepartamento": 13,
    "Nombredepartamento": "BOLIVAR",
    "Longitud": "-75.0655341715",
    "Latitud": "10.3928557722",
    "Zomac": "NO",
    "Pedet": "NO"
  },
  {
    "Id": 13647,
    "Nombremunicipio": "SAN ESTANISLAO",
    "Iddepartamento": 13,
    "Nombredepartamento": "BOLIVAR",
    "Longitud": "-75.153257919",
    "Latitud": "10.3984757022",
    "Zomac": "NO",
    "Pedet": "NO"
  },
  {
    "Id": 13650,
    "Nombremunicipio": "SAN FERNANDO",
    "Iddepartamento": 13,
    "Nombredepartamento": "BOLIVAR",
    "Longitud": "-74.3238666453",
    "Latitud": "9.21417906541",
    "Zomac": "NO",
    "Pedet": "NO"
  },
  {
    "Id": 13654,
    "Nombremunicipio": "SAN JACINTO",
    "Iddepartamento": 13,
    "Nombredepartamento": "BOLIVAR",
    "Longitud": "-75.1210888007",
    "Latitud": "9.83021907275",
    "Zomac": "SI",
    "Pedet": "SI"
  },
  {
    "Id": 13655,
    "Nombremunicipio": "SAN JACINTO DEL CAUCA",
    "Iddepartamento": 13,
    "Nombredepartamento": "BOLIVAR",
    "Longitud": "-74.720826427",
    "Latitud": "8.25173932101",
    "Zomac": "NO",
    "Pedet": "NO"
  },
  {
    "Id": 13657,
    "Nombremunicipio": "SAN JUAN NEPOMUCENO",
    "Iddepartamento": 13,
    "Nombredepartamento": "BOLIVAR",
    "Longitud": "-75.0813529279",
    "Latitud": "9.95345438771",
    "Zomac": "SI",
    "Pedet": "SI"
  },
  {
    "Id": 13667,
    "Nombremunicipio": "SAN MARTIN DE LOBA",
    "Iddepartamento": 13,
    "Nombredepartamento": "BOLIVAR",
    "Longitud": "-74.0390117481",
    "Latitud": "8.93709081139",
    "Zomac": "NO",
    "Pedet": "NO"
  },
  {
    "Id": 13670,
    "Nombremunicipio": "SAN PABLO",
    "Iddepartamento": 13,
    "Nombredepartamento": "BOLIVAR",
    "Longitud": "-73.924168553",
    "Latitud": "7.47672067152",
    "Zomac": "SI",
    "Pedet": "SI"
  },
  {
    "Id": 13673,
    "Nombremunicipio": "SANTA CATALINA",
    "Iddepartamento": 13,
    "Nombredepartamento": "BOLIVAR",
    "Longitud": "-75.2877641062",
    "Latitud": "10.6050560511",
    "Zomac": "NO",
    "Pedet": "NO"
  },
  {
    "Id": 13683,
    "Nombremunicipio": "SANTA ROSA",
    "Iddepartamento": 13,
    "Nombredepartamento": "BOLIVAR",
    "Longitud": "-75.369831664",
    "Latitud": "10.4443960805",
    "Zomac": "NO",
    "Pedet": "NO"
  },
  {
    "Id": 13688,
    "Nombremunicipio": "SANTA ROSA DEL SUR",
    "Iddepartamento": 13,
    "Nombredepartamento": "BOLIVAR",
    "Longitud": "-74.0528400072",
    "Latitud": "7.96285483059",
    "Zomac": "SI",
    "Pedet": "SI"
  },
  {
    "Id": 13744,
    "Nombremunicipio": "SIMITI",
    "Iddepartamento": 13,
    "Nombredepartamento": "BOLIVAR",
    "Longitud": "-73.9473119566",
    "Latitud": "7.95417637554",
    "Zomac": "SI",
    "Pedet": "SI"
  },
  {
    "Id": 13760,
    "Nombremunicipio": "SOPLAVIENTO",
    "Iddepartamento": 13,
    "Nombredepartamento": "BOLIVAR",
    "Longitud": "-75.136425507",
    "Latitud": "10.3884574255",
    "Zomac": "NO",
    "Pedet": "NO"
  },
  {
    "Id": 13780,
    "Nombremunicipio": "TALAIGUA NUEVO",
    "Iddepartamento": 13,
    "Nombredepartamento": "BOLIVAR",
    "Longitud": "-74.5676280613",
    "Latitud": "9.30488932928",
    "Zomac": "NO",
    "Pedet": "NO"
  },
  {
    "Id": 13810,
    "Nombremunicipio": "TIQUISIO",
    "Iddepartamento": 13,
    "Nombredepartamento": "BOLIVAR",
    "Longitud": "-74.2635468827",
    "Latitud": "8.55774111696",
    "Zomac": "SI",
    "Pedet": "NO"
  },
  {
    "Id": 13836,
    "Nombremunicipio": "TURBACO",
    "Iddepartamento": 13,
    "Nombredepartamento": "BOLIVAR",
    "Longitud": "-75.4244091655",
    "Latitud": "10.3327691633",
    "Zomac": "NO",
    "Pedet": "NO"
  },
  {
    "Id": 13838,
    "Nombremunicipio": "TURBANA",
    "Iddepartamento": 13,
    "Nombredepartamento": "BOLIVAR",
    "Longitud": "-75.4425024683",
    "Latitud": "10.2744020509",
    "Zomac": "NO",
    "Pedet": "NO"
  },
  {
    "Id": 13873,
    "Nombremunicipio": "VILLANUEVA",
    "Iddepartamento": 13,
    "Nombredepartamento": "BOLIVAR",
    "Longitud": "-75.2747543876",
    "Latitud": "10.4444983316",
    "Zomac": "NO",
    "Pedet": "NO"
  },
  {
    "Id": 13894,
    "Nombremunicipio": "ZAMBRANO",
    "Iddepartamento": 13,
    "Nombredepartamento": "BOLIVAR",
    "Longitud": "-74.8138396019",
    "Latitud": "9.74691390036",
    "Zomac": "SI",
    "Pedet": "SI"
  },
  {
    "Id": 15001,
    "Nombremunicipio": "TUNJA",
    "Iddepartamento": 15,
    "Nombredepartamento": "BOYACA",
    "Longitud": "-73.3554887287",
    "Latitud": "5.53995323795",
    "Zomac": "NO",
    "Pedet": "NO"
  },
  {
    "Id": 15022,
    "Nombremunicipio": "ALMEIDA",
    "Iddepartamento": 15,
    "Nombredepartamento": "BOYACA",
    "Longitud": "-73.3789331048",
    "Latitud": "4.97085650862",
    "Zomac": "NO",
    "Pedet": "NO"
  },
  {
    "Id": 15047,
    "Nombremunicipio": "AQUITANIA",
    "Iddepartamento": 15,
    "Nombredepartamento": "BOYACA",
    "Longitud": "-72.8839848091",
    "Latitud": "5.51860354302",
    "Zomac": "NO",
    "Pedet": "NO"
  },
  {
    "Id": 15051,
    "Nombremunicipio": "ARCABUCO",
    "Iddepartamento": 15,
    "Nombredepartamento": "BOYACA",
    "Longitud": "-73.4381847561",
    "Latitud": "5.75518426904",
    "Zomac": "NO",
    "Pedet": "NO"
  },
  {
    "Id": 15087,
    "Nombremunicipio": "BELEN",
    "Iddepartamento": 15,
    "Nombredepartamento": "BOYACA",
    "Longitud": "-72.9116195663",
    "Latitud": "5.98927786058",
    "Zomac": "NO",
    "Pedet": "NO"
  },
  {
    "Id": 15090,
    "Nombremunicipio": "BERBEO",
    "Iddepartamento": 15,
    "Nombredepartamento": "BOYACA",
    "Longitud": "-73.1270321462",
    "Latitud": "5.22728723002",
    "Zomac": "NO",
    "Pedet": "NO"
  },
  {
    "Id": 15092,
    "Nombremunicipio": "BETEITIVA",
    "Iddepartamento": 15,
    "Nombredepartamento": "BOYACA",
    "Longitud": "-72.8090312025",
    "Latitud": "5.90990781839",
    "Zomac": "NO",
    "Pedet": "NO"
  },
  {
    "Id": 15097,
    "Nombremunicipio": "BOAVITA",
    "Iddepartamento": 15,
    "Nombredepartamento": "BOYACA",
    "Longitud": "-72.5849593987",
    "Latitud": "6.33065256287",
    "Zomac": "NO",
    "Pedet": "NO"
  },
  {
    "Id": 15104,
    "Nombremunicipio": "BOYACA",
    "Iddepartamento": 15,
    "Nombredepartamento": "BOYACA",
    "Longitud": "-73.3623027174",
    "Latitud": "5.45423716391",
    "Zomac": "NO",
    "Pedet": "NO"
  },
  {
    "Id": 15106,
    "Nombremunicipio": "BRICENO",
    "Iddepartamento": 15,
    "Nombredepartamento": "BOYACA",
    "Longitud": "-73.9232596955",
    "Latitud": "5.69087889724",
    "Zomac": "NO",
    "Pedet": "NO"
  },
  {
    "Id": 15109,
    "Nombremunicipio": "BUENAVISTA",
    "Iddepartamento": 15,
    "Nombredepartamento": "BOYACA",
    "Longitud": "-73.9423052248",
    "Latitud": "5.51243115138",
    "Zomac": "NO",
    "Pedet": "NO"
  },
  {
    "Id": 15114,
    "Nombremunicipio": "BUSBANZA",
    "Iddepartamento": 15,
    "Nombredepartamento": "BOYACA",
    "Longitud": "-72.8841617543",
    "Latitud": "5.8313895322",
    "Zomac": "NO",
    "Pedet": "NO"
  },
  {
    "Id": 15131,
    "Nombremunicipio": "CALDAS",
    "Iddepartamento": 15,
    "Nombredepartamento": "BOYACA",
    "Longitud": "-73.8655410006",
    "Latitud": "5.55457507858",
    "Zomac": "NO",
    "Pedet": "NO"
  },
  {
    "Id": 15135,
    "Nombremunicipio": "CAMPOHERMOSO",
    "Iddepartamento": 15,
    "Nombredepartamento": "BOYACA",
    "Longitud": "-73.1041679174",
    "Latitud": "5.0316606812",
    "Zomac": "NO",
    "Pedet": "NO"
  },
  {
    "Id": 15162,
    "Nombremunicipio": "CERINZA",
    "Iddepartamento": 15,
    "Nombredepartamento": "BOYACA",
    "Longitud": "-72.948275851",
    "Latitud": "5.95602818885",
    "Zomac": "NO",
    "Pedet": "NO"
  },
  {
    "Id": 15172,
    "Nombremunicipio": "CHINAVITA",
    "Iddepartamento": 15,
    "Nombredepartamento": "BOYACA",
    "Longitud": "-73.3684764814",
    "Latitud": "5.16748382122",
    "Zomac": "NO",
    "Pedet": "NO"
  },
  {
    "Id": 15176,
    "Nombremunicipio": "CHIQUINQUIRA",
    "Iddepartamento": 15,
    "Nombredepartamento": "BOYACA",
    "Longitud": "-73.8183876347",
    "Latitud": "5.61412789039",
    "Zomac": "NO",
    "Pedet": "NO"
  },
  {
    "Id": 15180,
    "Nombremunicipio": "CHISCAS",
    "Iddepartamento": 15,
    "Nombredepartamento": "BOYACA",
    "Longitud": "-72.5018350718",
    "Latitud": "6.55405042828",
    "Zomac": "NO",
    "Pedet": "NO"
  },
  {
    "Id": 15183,
    "Nombremunicipio": "CHITA",
    "Iddepartamento": 15,
    "Nombredepartamento": "BOYACA",
    "Longitud": "-72.4718923521",
    "Latitud": "6.18708299638",
    "Zomac": "NO",
    "Pedet": "NO"
  },
  {
    "Id": 15185,
    "Nombremunicipio": "CHITARAQUE",
    "Iddepartamento": 15,
    "Nombredepartamento": "BOYACA",
    "Longitud": "-73.4471004029",
    "Latitud": "6.02742513316",
    "Zomac": "NO",
    "Pedet": "NO"
  },
  {
    "Id": 15187,
    "Nombremunicipio": "CHIVATA",
    "Iddepartamento": 15,
    "Nombredepartamento": "BOYACA",
    "Longitud": "-73.2825294417",
    "Latitud": "5.55894884501",
    "Zomac": "NO",
    "Pedet": "NO"
  },
  {
    "Id": 15189,
    "Nombremunicipio": "CIENEGA",
    "Iddepartamento": 15,
    "Nombredepartamento": "BOYACA",
    "Longitud": "-73.2960612914",
    "Latitud": "5.40870219185",
    "Zomac": "NO",
    "Pedet": "NO"
  },
  {
    "Id": 15204,
    "Nombremunicipio": "COMBITA",
    "Iddepartamento": 15,
    "Nombredepartamento": "BOYACA",
    "Longitud": "-73.323956415",
    "Latitud": "5.63454531392",
    "Zomac": "NO",
    "Pedet": "NO"
  },
  {
    "Id": 15212,
    "Nombremunicipio": "COPER",
    "Iddepartamento": 15,
    "Nombredepartamento": "BOYACA",
    "Longitud": "-74.0454607199",
    "Latitud": "5.47498301805",
    "Zomac": "NO",
    "Pedet": "NO"
  },
  {
    "Id": 15215,
    "Nombremunicipio": "CORRALES",
    "Iddepartamento": 15,
    "Nombredepartamento": "BOYACA",
    "Longitud": "-72.8447948409",
    "Latitud": "5.82810220795",
    "Zomac": "NO",
    "Pedet": "NO"
  },
  {
    "Id": 15218,
    "Nombremunicipio": "COVARACHIA",
    "Iddepartamento": 15,
    "Nombredepartamento": "BOYACA",
    "Longitud": "-72.7389779335",
    "Latitud": "6.50017746022",
    "Zomac": "NO",
    "Pedet": "NO"
  },
  {
    "Id": 15223,
    "Nombremunicipio": "CUBARA",
    "Iddepartamento": 15,
    "Nombredepartamento": "BOYACA",
    "Longitud": "-72.1106877551",
    "Latitud": "7.00009287529",
    "Zomac": "NO",
    "Pedet": "NO"
  },
  {
    "Id": 15224,
    "Nombremunicipio": "CUCAITA",
    "Iddepartamento": 15,
    "Nombredepartamento": "BOYACA",
    "Longitud": "-73.4543376458",
    "Latitud": "5.54445155869",
    "Zomac": "NO",
    "Pedet": "NO"
  },
  {
    "Id": 15226,
    "Nombremunicipio": "CUITIVA",
    "Iddepartamento": 15,
    "Nombredepartamento": "BOYACA",
    "Longitud": "-72.9659232314",
    "Latitud": "5.58036723016",
    "Zomac": "NO",
    "Pedet": "NO"
  },
  {
    "Id": 15232,
    "Nombremunicipio": "CHIQUIZA",
    "Iddepartamento": 15,
    "Nombredepartamento": "BOYACA",
    "Longitud": "-73.4494626143",
    "Latitud": "5.63983430511",
    "Zomac": "NO",
    "Pedet": "NO"
  },
  {
    "Id": 15236,
    "Nombremunicipio": "CHIVOR",
    "Iddepartamento": 15,
    "Nombredepartamento": "BOYACA",
    "Longitud": "-73.3668937555",
    "Latitud": "4.8877816607",
    "Zomac": "SI",
    "Pedet": "NO"
  },
  {
    "Id": 15238,
    "Nombremunicipio": "DUITAMA",
    "Iddepartamento": 15,
    "Nombredepartamento": "BOYACA",
    "Longitud": "-73.0306096702",
    "Latitud": "5.82298567975",
    "Zomac": "NO",
    "Pedet": "NO"
  },
  {
    "Id": 15244,
    "Nombremunicipio": "EL COCUY",
    "Iddepartamento": 15,
    "Nombredepartamento": "BOYACA",
    "Longitud": "-72.4447293162",
    "Latitud": "6.40771623162",
    "Zomac": "NO",
    "Pedet": "NO"
  },
  {
    "Id": 15248,
    "Nombremunicipio": "EL ESPINO",
    "Iddepartamento": 15,
    "Nombredepartamento": "BOYACA",
    "Longitud": "-72.4970073546",
    "Latitud": "6.48302740589",
    "Zomac": "NO",
    "Pedet": "NO"
  },
  {
    "Id": 15272,
    "Nombremunicipio": "FIRAVITOBA",
    "Iddepartamento": 15,
    "Nombredepartamento": "BOYACA",
    "Longitud": "-72.9933614508",
    "Latitud": "5.66892215993",
    "Zomac": "NO",
    "Pedet": "NO"
  },
  {
    "Id": 15276,
    "Nombremunicipio": "FLORESTA",
    "Iddepartamento": 15,
    "Nombredepartamento": "BOYACA",
    "Longitud": "-72.9181113126",
    "Latitud": "5.85951912431",
    "Zomac": "NO",
    "Pedet": "NO"
  },
  {
    "Id": 15293,
    "Nombremunicipio": "GACHANTIVA",
    "Iddepartamento": 15,
    "Nombredepartamento": "BOYACA",
    "Longitud": "-73.5490923938",
    "Latitud": "5.75189108211",
    "Zomac": "NO",
    "Pedet": "NO"
  },
  {
    "Id": 15296,
    "Nombremunicipio": "GAMEZA",
    "Iddepartamento": 15,
    "Nombredepartamento": "BOYACA",
    "Longitud": "-72.805529354",
    "Latitud": "5.80233780495",
    "Zomac": "NO",
    "Pedet": "NO"
  },
  {
    "Id": 15299,
    "Nombremunicipio": "GARAGOA",
    "Iddepartamento": 15,
    "Nombredepartamento": "BOYACA",
    "Longitud": "-73.3644275636",
    "Latitud": "5.08324346272",
    "Zomac": "NO",
    "Pedet": "NO"
  },
  {
    "Id": 15317,
    "Nombremunicipio": "GUACAMAYAS",
    "Iddepartamento": 15,
    "Nombredepartamento": "BOYACA",
    "Longitud": "-72.5008119968",
    "Latitud": "6.4596665157",
    "Zomac": "NO",
    "Pedet": "NO"
  },
  {
    "Id": 15322,
    "Nombremunicipio": "GUATEQUE",
    "Iddepartamento": 15,
    "Nombredepartamento": "BOYACA",
    "Longitud": "-73.4712069731",
    "Latitud": "5.00732089514",
    "Zomac": "NO",
    "Pedet": "NO"
  },
  {
    "Id": 15325,
    "Nombremunicipio": "GUAYATA",
    "Iddepartamento": 15,
    "Nombredepartamento": "BOYACA",
    "Longitud": "-73.4896964004",
    "Latitud": "4.96712253068",
    "Zomac": "NO",
    "Pedet": "NO"
  },
  {
    "Id": 15332,
    "Nombremunicipio": "GUICAN DE LA SIERRA",
    "Iddepartamento": 15,
    "Nombredepartamento": "BOYACA",
    "Longitud": "-72.4117626054",
    "Latitud": "6.46286375486",
    "Zomac": "NO",
    "Pedet": "NO"
  },
  {
    "Id": 15362,
    "Nombremunicipio": "IZA",
    "Iddepartamento": 15,
    "Nombredepartamento": "BOYACA",
    "Longitud": "-72.9801762321",
    "Latitud": "5.61169613977",
    "Zomac": "NO",
    "Pedet": "NO"
  },
  {
    "Id": 15367,
    "Nombremunicipio": "JENESANO",
    "Iddepartamento": 15,
    "Nombredepartamento": "BOYACA",
    "Longitud": "-73.3637375578",
    "Latitud": "5.38581284499",
    "Zomac": "NO",
    "Pedet": "NO"
  },
  {
    "Id": 15368,
    "Nombremunicipio": "JERICO",
    "Iddepartamento": 15,
    "Nombredepartamento": "BOYACA",
    "Longitud": "-72.5707234868",
    "Latitud": "6.14592038332",
    "Zomac": "NO",
    "Pedet": "NO"
  },
  {
    "Id": 15377,
    "Nombremunicipio": "LABRANZAGRANDE",
    "Iddepartamento": 15,
    "Nombredepartamento": "BOYACA",
    "Longitud": "-72.5777701202",
    "Latitud": "5.56268704797",
    "Zomac": "SI",
    "Pedet": "NO"
  },
  {
    "Id": 15380,
    "Nombremunicipio": "LA CAPILLA",
    "Iddepartamento": 15,
    "Nombredepartamento": "BOYACA",
    "Longitud": "-73.4443474018",
    "Latitud": "5.09568699246",
    "Zomac": "NO",
    "Pedet": "NO"
  },
  {
    "Id": 15401,
    "Nombremunicipio": "LA VICTORIA",
    "Iddepartamento": 15,
    "Nombredepartamento": "BOYACA",
    "Longitud": "-74.2343932245",
    "Latitud": "5.52379224002",
    "Zomac": "NO",
    "Pedet": "NO"
  },
  {
    "Id": 15403,
    "Nombremunicipio": "LA UVITA",
    "Iddepartamento": 15,
    "Nombredepartamento": "BOYACA",
    "Longitud": "-72.5599847038",
    "Latitud": "6.3162064057",
    "Zomac": "NO",
    "Pedet": "NO"
  },
  {
    "Id": 15407,
    "Nombremunicipio": "VILLA DE LEYVA",
    "Iddepartamento": 15,
    "Nombredepartamento": "BOYACA",
    "Longitud": "-73.5246845965",
    "Latitud": "5.63266184936",
    "Zomac": "NO",
    "Pedet": "NO"
  },
  {
    "Id": 15425,
    "Nombremunicipio": "MACANAL",
    "Iddepartamento": 15,
    "Nombredepartamento": "BOYACA",
    "Longitud": "-73.3196422421",
    "Latitud": "4.97246606306",
    "Zomac": "NO",
    "Pedet": "NO"
  },
  {
    "Id": 15442,
    "Nombremunicipio": "MARIPI",
    "Iddepartamento": 15,
    "Nombredepartamento": "BOYACA",
    "Longitud": "-74.0040499461",
    "Latitud": "5.55009070992",
    "Zomac": "NO",
    "Pedet": "NO"
  },
  {
    "Id": 15455,
    "Nombremunicipio": "MIRAFLORES",
    "Iddepartamento": 15,
    "Nombredepartamento": "BOYACA",
    "Longitud": "-73.1456304805",
    "Latitud": "5.19651511498",
    "Zomac": "NO",
    "Pedet": "NO"
  },
  {
    "Id": 15464,
    "Nombremunicipio": "MONGUA",
    "Iddepartamento": 15,
    "Nombredepartamento": "BOYACA",
    "Longitud": "-72.7980904867",
    "Latitud": "5.7542422283",
    "Zomac": "NO",
    "Pedet": "NO"
  },
  {
    "Id": 15466,
    "Nombremunicipio": "MONGUI",
    "Iddepartamento": 15,
    "Nombredepartamento": "BOYACA",
    "Longitud": "-72.8492600099",
    "Latitud": "5.72340407154",
    "Zomac": "NO",
    "Pedet": "NO"
  },
  {
    "Id": 15469,
    "Nombremunicipio": "MONIQUIRA",
    "Iddepartamento": 15,
    "Nombredepartamento": "BOYACA",
    "Longitud": "-73.5733703874",
    "Latitud": "5.8763348107",
    "Zomac": "NO",
    "Pedet": "NO"
  },
  {
    "Id": 15476,
    "Nombremunicipio": "MOTAVITA",
    "Iddepartamento": 15,
    "Nombredepartamento": "BOYACA",
    "Longitud": "-73.3678410519",
    "Latitud": "5.57769959996",
    "Zomac": "NO",
    "Pedet": "NO"
  },
  {
    "Id": 15480,
    "Nombremunicipio": "MUZO",
    "Iddepartamento": 15,
    "Nombredepartamento": "BOYACA",
    "Longitud": "-74.1027507754",
    "Latitud": "5.53246286737",
    "Zomac": "NO",
    "Pedet": "NO"
  },
  {
    "Id": 15491,
    "Nombremunicipio": "NOBSA",
    "Iddepartamento": 15,
    "Nombredepartamento": "BOYACA",
    "Longitud": "-72.9398531722",
    "Latitud": "5.77104262442",
    "Zomac": "NO",
    "Pedet": "NO"
  },
  {
    "Id": 15494,
    "Nombremunicipio": "NUEVO COLON",
    "Iddepartamento": 15,
    "Nombredepartamento": "BOYACA",
    "Longitud": "-73.457136184",
    "Latitud": "5.35514586429",
    "Zomac": "NO",
    "Pedet": "NO"
  },
  {
    "Id": 15500,
    "Nombremunicipio": "OICATA",
    "Iddepartamento": 15,
    "Nombredepartamento": "BOYACA",
    "Longitud": "-73.3084039802",
    "Latitud": "5.59523423857",
    "Zomac": "NO",
    "Pedet": "NO"
  },
  {
    "Id": 15507,
    "Nombremunicipio": "OTANCHE",
    "Iddepartamento": 15,
    "Nombredepartamento": "BOYACA",
    "Longitud": "-74.1809647364",
    "Latitud": "5.6575357131",
    "Zomac": "NO",
    "Pedet": "NO"
  },
  {
    "Id": 15511,
    "Nombremunicipio": "PACHAVITA",
    "Iddepartamento": 15,
    "Nombredepartamento": "BOYACA",
    "Longitud": "-73.3969530625",
    "Latitud": "5.1400647313",
    "Zomac": "NO",
    "Pedet": "NO"
  },
  {
    "Id": 15514,
    "Nombremunicipio": "PAEZ",
    "Iddepartamento": 15,
    "Nombredepartamento": "BOYACA",
    "Longitud": "-73.0543103782",
    "Latitud": "5.09523463077",
    "Zomac": "NO",
    "Pedet": "NO"
  },
  {
    "Id": 15516,
    "Nombremunicipio": "PAIPA",
    "Iddepartamento": 15,
    "Nombredepartamento": "BOYACA",
    "Longitud": "-73.1179168833",
    "Latitud": "5.77994187022",
    "Zomac": "NO",
    "Pedet": "NO"
  },
  {
    "Id": 15518,
    "Nombremunicipio": "PAJARITO",
    "Iddepartamento": 15,
    "Nombredepartamento": "BOYACA",
    "Longitud": "-72.7032099199",
    "Latitud": "5.29366520638",
    "Zomac": "SI",
    "Pedet": "NO"
  },
  {
    "Id": 15522,
    "Nombremunicipio": "PANQUEBA",
    "Iddepartamento": 15,
    "Nombredepartamento": "BOYACA",
    "Longitud": "-72.459200274",
    "Latitud": "6.4430754152",
    "Zomac": "NO",
    "Pedet": "NO"
  },
  {
    "Id": 15531,
    "Nombremunicipio": "PAUNA",
    "Iddepartamento": 15,
    "Nombredepartamento": "BOYACA",
    "Longitud": "-73.9784487242",
    "Latitud": "5.65632269134",
    "Zomac": "NO",
    "Pedet": "NO"
  },
  {
    "Id": 15533,
    "Nombremunicipio": "PAYA",
    "Iddepartamento": 15,
    "Nombredepartamento": "BOYACA",
    "Longitud": "-72.4237754102",
    "Latitud": "5.62569870723",
    "Zomac": "SI",
    "Pedet": "NO"
  },
  {
    "Id": 15537,
    "Nombremunicipio": "PAZ DE RIO",
    "Iddepartamento": 15,
    "Nombredepartamento": "BOYACA",
    "Longitud": "-72.7491373831",
    "Latitud": "5.98764490579",
    "Zomac": "NO",
    "Pedet": "NO"
  },
  {
    "Id": 15542,
    "Nombremunicipio": "PESCA",
    "Iddepartamento": 15,
    "Nombredepartamento": "BOYACA",
    "Longitud": "-73.0508722377",
    "Latitud": "5.55880760918",
    "Zomac": "NO",
    "Pedet": "NO"
  },
  {
    "Id": 15550,
    "Nombremunicipio": "PISBA",
    "Iddepartamento": 15,
    "Nombredepartamento": "BOYACA",
    "Longitud": "-72.4859468239",
    "Latitud": "5.72161511225",
    "Zomac": "SI",
    "Pedet": "NO"
  },
  {
    "Id": 15572,
    "Nombremunicipio": "PUERTO BOYACA",
    "Iddepartamento": 15,
    "Nombredepartamento": "BOYACA",
    "Longitud": "-74.5879991859",
    "Latitud": "5.97793495174",
    "Zomac": "NO",
    "Pedet": "NO"
  },
  {
    "Id": 15580,
    "Nombremunicipio": "QUIPAMA",
    "Iddepartamento": 15,
    "Nombredepartamento": "BOYACA",
    "Longitud": "-74.1777293867",
    "Latitud": "5.51837038479",
    "Zomac": "NO",
    "Pedet": "NO"
  },
  {
    "Id": 15599,
    "Nombremunicipio": "RAMIRIQUI",
    "Iddepartamento": 15,
    "Nombredepartamento": "BOYACA",
    "Longitud": "-73.3348689631",
    "Latitud": "5.40022164431",
    "Zomac": "NO",
    "Pedet": "NO"
  },
  {
    "Id": 15600,
    "Nombremunicipio": "RAQUIRA",
    "Iddepartamento": 15,
    "Nombredepartamento": "BOYACA",
    "Longitud": "-73.6324971571",
    "Latitud": "5.53906582743",
    "Zomac": "NO",
    "Pedet": "NO"
  },
  {
    "Id": 15621,
    "Nombremunicipio": "RONDON",
    "Iddepartamento": 15,
    "Nombredepartamento": "BOYACA",
    "Longitud": "-73.2084739746",
    "Latitud": "5.35740011572",
    "Zomac": "NO",
    "Pedet": "NO"
  },
  {
    "Id": 15632,
    "Nombremunicipio": "SABOYA",
    "Iddepartamento": 15,
    "Nombredepartamento": "BOYACA",
    "Longitud": "-73.7646606203",
    "Latitud": "5.69773343185",
    "Zomac": "NO",
    "Pedet": "NO"
  },
  {
    "Id": 15638,
    "Nombremunicipio": "SACHICA",
    "Iddepartamento": 15,
    "Nombredepartamento": "BOYACA",
    "Longitud": "-73.5426344665",
    "Latitud": "5.5835924967",
    "Zomac": "NO",
    "Pedet": "NO"
  },
  {
    "Id": 15646,
    "Nombremunicipio": "SAMACA",
    "Iddepartamento": 15,
    "Nombredepartamento": "BOYACA",
    "Longitud": "-73.4856435912",
    "Latitud": "5.49231459065",
    "Zomac": "NO",
    "Pedet": "NO"
  },
  {
    "Id": 15660,
    "Nombremunicipio": "SAN EDUARDO",
    "Iddepartamento": 15,
    "Nombredepartamento": "BOYACA",
    "Longitud": "-73.0771429986",
    "Latitud": "5.22395593971",
    "Zomac": "NO",
    "Pedet": "NO"
  },
  {
    "Id": 15664,
    "Nombremunicipio": "SAN JOSE DE PARE",
    "Iddepartamento": 15,
    "Nombredepartamento": "BOYACA",
    "Longitud": "-73.5453724498",
    "Latitud": "6.01897577141",
    "Zomac": "NO",
    "Pedet": "NO"
  },
  {
    "Id": 15667,
    "Nombremunicipio": "SAN LUIS DE GACENO",
    "Iddepartamento": 15,
    "Nombredepartamento": "BOYACA",
    "Longitud": "-73.1683594198",
    "Latitud": "4.81969044706",
    "Zomac": "NO",
    "Pedet": "NO"
  },
  {
    "Id": 15673,
    "Nombremunicipio": "SAN MATEO",
    "Iddepartamento": 15,
    "Nombredepartamento": "BOYACA",
    "Longitud": "-72.555264211",
    "Latitud": "6.40168331763",
    "Zomac": "NO",
    "Pedet": "NO"
  },
  {
    "Id": 15676,
    "Nombremunicipio": "SAN MIGUEL DE SEMA",
    "Iddepartamento": 15,
    "Nombredepartamento": "BOYACA",
    "Longitud": "-73.7220048421",
    "Latitud": "5.51808638788",
    "Zomac": "NO",
    "Pedet": "NO"
  },
  {
    "Id": 15681,
    "Nombremunicipio": "SAN PABLO DE BORBUR",
    "Iddepartamento": 15,
    "Nombredepartamento": "BOYACA",
    "Longitud": "-74.0699644758",
    "Latitud": "5.6506763959",
    "Zomac": "NO",
    "Pedet": "NO"
  },
  {
    "Id": 15686,
    "Nombremunicipio": "SANTANA",
    "Iddepartamento": 15,
    "Nombredepartamento": "BOYACA",
    "Longitud": "-73.4812263191",
    "Latitud": "6.05741310683",
    "Zomac": "NO",
    "Pedet": "NO"
  },
  {
    "Id": 15690,
    "Nombremunicipio": "SANTA MARIA",
    "Iddepartamento": 15,
    "Nombredepartamento": "BOYACA",
    "Longitud": "-73.2635176558",
    "Latitud": "4.85719299476",
    "Zomac": "NO",
    "Pedet": "NO"
  },
  {
    "Id": 15693,
    "Nombremunicipio": "SANTA ROSA DE VITERBO",
    "Iddepartamento": 15,
    "Nombredepartamento": "BOYACA",
    "Longitud": "-72.9824609238",
    "Latitud": "5.87455559736",
    "Zomac": "NO",
    "Pedet": "NO"
  },
  {
    "Id": 15696,
    "Nombremunicipio": "SANTA SOFIA",
    "Iddepartamento": 15,
    "Nombredepartamento": "BOYACA",
    "Longitud": "-73.6027071719",
    "Latitud": "5.71326942075",
    "Zomac": "NO",
    "Pedet": "NO"
  },
  {
    "Id": 15720,
    "Nombremunicipio": "SATIVANORTE",
    "Iddepartamento": 15,
    "Nombredepartamento": "BOYACA",
    "Longitud": "-72.7084581556",
    "Latitud": "6.13113611074",
    "Zomac": "NO",
    "Pedet": "NO"
  },
  {
    "Id": 15723,
    "Nombremunicipio": "SATIVASUR",
    "Iddepartamento": 15,
    "Nombredepartamento": "BOYACA",
    "Longitud": "-72.7124380793",
    "Latitud": "6.09318234349",
    "Zomac": "NO",
    "Pedet": "NO"
  },
  {
    "Id": 15740,
    "Nombremunicipio": "SIACHOQUE",
    "Iddepartamento": 15,
    "Nombredepartamento": "BOYACA",
    "Longitud": "-73.2446490051",
    "Latitud": "5.51181505462",
    "Zomac": "NO",
    "Pedet": "NO"
  },
  {
    "Id": 15753,
    "Nombremunicipio": "SOATA",
    "Iddepartamento": 15,
    "Nombredepartamento": "BOYACA",
    "Longitud": "-72.6840249822",
    "Latitud": "6.33191193659",
    "Zomac": "NO",
    "Pedet": "NO"
  },
  {
    "Id": 15755,
    "Nombremunicipio": "SOCOTA",
    "Iddepartamento": 15,
    "Nombredepartamento": "BOYACA",
    "Longitud": "-72.6366533804",
    "Latitud": "6.04116183315",
    "Zomac": "NO",
    "Pedet": "NO"
  },
  {
    "Id": 15757,
    "Nombremunicipio": "SOCHA",
    "Iddepartamento": 15,
    "Nombredepartamento": "BOYACA",
    "Longitud": "-72.6919658568",
    "Latitud": "5.99671302142",
    "Zomac": "NO",
    "Pedet": "NO"
  },
  {
    "Id": 15759,
    "Nombremunicipio": "SOGAMOSO",
    "Iddepartamento": 15,
    "Nombredepartamento": "BOYACA",
    "Longitud": "-72.9230476859",
    "Latitud": "5.72568939005",
    "Zomac": "NO",
    "Pedet": "NO"
  },
  {
    "Id": 15761,
    "Nombremunicipio": "SOMONDOCO",
    "Iddepartamento": 15,
    "Nombredepartamento": "BOYACA",
    "Longitud": "-73.433392983",
    "Latitud": "4.98572550723",
    "Zomac": "NO",
    "Pedet": "NO"
  },
  {
    "Id": 15762,
    "Nombremunicipio": "SORA",
    "Iddepartamento": 15,
    "Nombredepartamento": "BOYACA",
    "Longitud": "-73.4501527774",
    "Latitud": "5.56683979702",
    "Zomac": "NO",
    "Pedet": "NO"
  },
  {
    "Id": 15763,
    "Nombremunicipio": "SOTAQUIRA",
    "Iddepartamento": 15,
    "Nombredepartamento": "BOYACA",
    "Longitud": "-73.2473344815",
    "Latitud": "5.76523077368",
    "Zomac": "NO",
    "Pedet": "NO"
  },
  {
    "Id": 15764,
    "Nombremunicipio": "SORACA",
    "Iddepartamento": 15,
    "Nombredepartamento": "BOYACA",
    "Longitud": "-73.332805627",
    "Latitud": "5.50090483119",
    "Zomac": "NO",
    "Pedet": "NO"
  },
  {
    "Id": 15774,
    "Nombremunicipio": "SUSACON",
    "Iddepartamento": 15,
    "Nombredepartamento": "BOYACA",
    "Longitud": "-72.6902892468",
    "Latitud": "6.23033207437",
    "Zomac": "NO",
    "Pedet": "NO"
  },
  {
    "Id": 15776,
    "Nombremunicipio": "SUTAMARCHAN",
    "Iddepartamento": 15,
    "Nombredepartamento": "BOYACA",
    "Longitud": "-73.6205860962",
    "Latitud": "5.61978141908",
    "Zomac": "NO",
    "Pedet": "NO"
  },
  {
    "Id": 15778,
    "Nombremunicipio": "SUTATENZA",
    "Iddepartamento": 15,
    "Nombredepartamento": "BOYACA",
    "Longitud": "-73.4523171398",
    "Latitud": "5.02298899355",
    "Zomac": "NO",
    "Pedet": "NO"
  },
  {
    "Id": 15790,
    "Nombremunicipio": "TASCO",
    "Iddepartamento": 15,
    "Nombredepartamento": "BOYACA",
    "Longitud": "-72.7810111577",
    "Latitud": "5.90982103112",
    "Zomac": "NO",
    "Pedet": "NO"
  },
  {
    "Id": 15798,
    "Nombremunicipio": "TENZA",
    "Iddepartamento": 15,
    "Nombredepartamento": "BOYACA",
    "Longitud": "-73.4205891075",
    "Latitud": "5.0770743509",
    "Zomac": "NO",
    "Pedet": "NO"
  },
  {
    "Id": 15804,
    "Nombremunicipio": "TIBANA",
    "Iddepartamento": 15,
    "Nombredepartamento": "BOYACA",
    "Longitud": "-73.3964572213",
    "Latitud": "5.31725092439",
    "Zomac": "NO",
    "Pedet": "NO"
  },
  {
    "Id": 15806,
    "Nombremunicipio": "TIBASOSA",
    "Iddepartamento": 15,
    "Nombredepartamento": "BOYACA",
    "Longitud": "-72.9994492099",
    "Latitud": "5.74722997688",
    "Zomac": "NO",
    "Pedet": "NO"
  },
  {
    "Id": 15808,
    "Nombremunicipio": "TINJACA",
    "Iddepartamento": 15,
    "Nombredepartamento": "BOYACA",
    "Longitud": "-73.6468473359",
    "Latitud": "5.57971330972",
    "Zomac": "NO",
    "Pedet": "NO"
  },
  {
    "Id": 15810,
    "Nombremunicipio": "TIPACOQUE",
    "Iddepartamento": 15,
    "Nombredepartamento": "BOYACA",
    "Longitud": "-72.6931726756",
    "Latitud": "6.41858580299",
    "Zomac": "NO",
    "Pedet": "NO"
  },
  {
    "Id": 15814,
    "Nombremunicipio": "TOCA",
    "Iddepartamento": 15,
    "Nombredepartamento": "BOYACA",
    "Longitud": "-73.1847903357",
    "Latitud": "5.56646915043",
    "Zomac": "NO",
    "Pedet": "NO"
  },
  {
    "Id": 15816,
    "Nombremunicipio": "TOGUI",
    "Iddepartamento": 15,
    "Nombredepartamento": "BOYACA",
    "Longitud": "-73.5136550618",
    "Latitud": "5.93743822459",
    "Zomac": "NO",
    "Pedet": "NO"
  },
  {
    "Id": 15820,
    "Nombremunicipio": "TOPAGA",
    "Iddepartamento": 15,
    "Nombredepartamento": "BOYACA",
    "Longitud": "-72.832244934",
    "Latitud": "5.76820144934",
    "Zomac": "NO",
    "Pedet": "NO"
  },
  {
    "Id": 15822,
    "Nombremunicipio": "TOTA",
    "Iddepartamento": 15,
    "Nombredepartamento": "BOYACA",
    "Longitud": "-72.9858981444",
    "Latitud": "5.56049737415",
    "Zomac": "NO",
    "Pedet": "NO"
  },
  {
    "Id": 15832,
    "Nombremunicipio": "TUNUNGUA",
    "Iddepartamento": 15,
    "Nombredepartamento": "BOYACA",
    "Longitud": "-73.9331547966",
    "Latitud": "5.7305822083",
    "Zomac": "NO",
    "Pedet": "NO"
  },
  {
    "Id": 15835,
    "Nombremunicipio": "TURMEQUE",
    "Iddepartamento": 15,
    "Nombredepartamento": "BOYACA",
    "Longitud": "-73.4918470184",
    "Latitud": "5.3232527677",
    "Zomac": "NO",
    "Pedet": "NO"
  },
  {
    "Id": 15837,
    "Nombremunicipio": "TUTA",
    "Iddepartamento": 15,
    "Nombredepartamento": "BOYACA",
    "Longitud": "-73.2259729425",
    "Latitud": "5.69096824399",
    "Zomac": "NO",
    "Pedet": "NO"
  },
  {
    "Id": 15839,
    "Nombremunicipio": "TUTAZA",
    "Iddepartamento": 15,
    "Nombredepartamento": "BOYACA",
    "Longitud": "-72.8560354807",
    "Latitud": "6.03260790273",
    "Zomac": "NO",
    "Pedet": "NO"
  },
  {
    "Id": 15842,
    "Nombremunicipio": "UMBITA",
    "Iddepartamento": 15,
    "Nombredepartamento": "BOYACA",
    "Longitud": "-73.4569165722",
    "Latitud": "5.22117620092",
    "Zomac": "NO",
    "Pedet": "NO"
  },
  {
    "Id": 15861,
    "Nombremunicipio": "VENTAQUEMADA",
    "Iddepartamento": 15,
    "Nombredepartamento": "BOYACA",
    "Longitud": "-73.5223732489",
    "Latitud": "5.36873397919",
    "Zomac": "NO",
    "Pedet": "NO"
  },
  {
    "Id": 15879,
    "Nombremunicipio": "VIRACACHA",
    "Iddepartamento": 15,
    "Nombredepartamento": "BOYACA",
    "Longitud": "-73.2968996511",
    "Latitud": "5.43678853466",
    "Zomac": "NO",
    "Pedet": "NO"
  },
  {
    "Id": 15897,
    "Nombremunicipio": "ZETAQUIRA",
    "Iddepartamento": 15,
    "Nombredepartamento": "BOYACA",
    "Longitud": "-73.1690520056",
    "Latitud": "5.28211605241",
    "Zomac": "NO",
    "Pedet": "NO"
  },
  {
    "Id": 17001,
    "Nombremunicipio": "MANIZALES",
    "Iddepartamento": 17,
    "Nombredepartamento": "CALDAS",
    "Longitud": "-75.4910489848",
    "Latitud": "5.05768819705",
    "Zomac": "NO",
    "Pedet": "NO"
  },
  {
    "Id": 17013,
    "Nombremunicipio": "AGUADAS",
    "Iddepartamento": 17,
    "Nombredepartamento": "CALDAS",
    "Longitud": "-75.4548696699",
    "Latitud": "5.61024445592",
    "Zomac": "NO",
    "Pedet": "NO"
  },
  {
    "Id": 17042,
    "Nombremunicipio": "ANSERMA",
    "Iddepartamento": 17,
    "Nombredepartamento": "CALDAS",
    "Longitud": "-75.7843426615",
    "Latitud": "5.23647439108",
    "Zomac": "SI",
    "Pedet": "NO"
  },
  {
    "Id": 17050,
    "Nombremunicipio": "ARANZAZU",
    "Iddepartamento": 17,
    "Nombredepartamento": "CALDAS",
    "Longitud": "-75.4912546148",
    "Latitud": "5.27114176848",
    "Zomac": "NO",
    "Pedet": "NO"
  },
  {
    "Id": 17088,
    "Nombremunicipio": "BELALCAZAR",
    "Iddepartamento": 17,
    "Nombredepartamento": "CALDAS",
    "Longitud": "-75.8119182955",
    "Latitud": "4.99379389997",
    "Zomac": "SI",
    "Pedet": "NO"
  },
  {
    "Id": 17174,
    "Nombremunicipio": "CHINCHINA",
    "Iddepartamento": 17,
    "Nombredepartamento": "CALDAS",
    "Longitud": "-75.6074807289",
    "Latitud": "4.98581286197",
    "Zomac": "NO",
    "Pedet": "NO"
  },
  {
    "Id": 17272,
    "Nombremunicipio": "FILADELFIA",
    "Iddepartamento": 17,
    "Nombredepartamento": "CALDAS",
    "Longitud": "-75.5624740599",
    "Latitud": "5.29709070967",
    "Zomac": "NO",
    "Pedet": "NO"
  },
  {
    "Id": 17380,
    "Nombremunicipio": "LA DORADA",
    "Iddepartamento": 17,
    "Nombredepartamento": "CALDAS",
    "Longitud": "-74.6582056212",
    "Latitud": "5.44440609816",
    "Zomac": "NO",
    "Pedet": "NO"
  },
  {
    "Id": 17388,
    "Nombremunicipio": "LA MERCED",
    "Iddepartamento": 17,
    "Nombredepartamento": "CALDAS",
    "Longitud": "-75.5479078855",
    "Latitud": "5.39477940954",
    "Zomac": "NO",
    "Pedet": "NO"
  },
  {
    "Id": 17433,
    "Nombremunicipio": "MANZANARES",
    "Iddepartamento": 17,
    "Nombredepartamento": "CALDAS",
    "Longitud": "-75.1528288516",
    "Latitud": "5.25572025339",
    "Zomac": "NO",
    "Pedet": "NO"
  },
  {
    "Id": 17442,
    "Nombremunicipio": "MARMATO",
    "Iddepartamento": 17,
    "Nombredepartamento": "CALDAS",
    "Longitud": "-75.6002416244",
    "Latitud": "5.47400482007",
    "Zomac": "NO",
    "Pedet": "NO"
  },
  {
    "Id": 17444,
    "Nombremunicipio": "MARQUETALIA",
    "Iddepartamento": 17,
    "Nombredepartamento": "CALDAS",
    "Longitud": "-75.0530970305",
    "Latitud": "5.29752456061",
    "Zomac": "NO",
    "Pedet": "NO"
  },
  {
    "Id": 17446,
    "Nombremunicipio": "MARULANDA",
    "Iddepartamento": 17,
    "Nombredepartamento": "CALDAS",
    "Longitud": "-75.2594025313",
    "Latitud": "5.28433046388",
    "Zomac": "SI",
    "Pedet": "NO"
  },
  {
    "Id": 17486,
    "Nombremunicipio": "NEIRA",
    "Iddepartamento": 17,
    "Nombredepartamento": "CALDAS",
    "Longitud": "-75.5198420752",
    "Latitud": "5.16670570261",
    "Zomac": "NO",
    "Pedet": "NO"
  },
  {
    "Id": 17495,
    "Nombremunicipio": "NORCASIA",
    "Iddepartamento": 17,
    "Nombredepartamento": "CALDAS",
    "Longitud": "-74.8895440794",
    "Latitud": "5.57479539319",
    "Zomac": "SI",
    "Pedet": "NO"
  },
  {
    "Id": 17513,
    "Nombremunicipio": "PACORA",
    "Iddepartamento": 17,
    "Nombredepartamento": "CALDAS",
    "Longitud": "-75.4596212622",
    "Latitud": "5.52717173309",
    "Zomac": "NO",
    "Pedet": "NO"
  },
  {
    "Id": 17524,
    "Nombremunicipio": "PALESTINA",
    "Iddepartamento": 17,
    "Nombredepartamento": "CALDAS",
    "Longitud": "-75.6215025571",
    "Latitud": "5.02057116803",
    "Zomac": "SI",
    "Pedet": "NO"
  },
  {
    "Id": 17541,
    "Nombremunicipio": "PENSILVANIA",
    "Iddepartamento": 17,
    "Nombredepartamento": "CALDAS",
    "Longitud": "-75.1602985189",
    "Latitud": "5.38328059422",
    "Zomac": "SI",
    "Pedet": "NO"
  },
  {
    "Id": 17614,
    "Nombremunicipio": "RIOSUCIO",
    "Iddepartamento": 17,
    "Nombredepartamento": "CALDAS",
    "Longitud": "-75.7020697129",
    "Latitud": "5.42368091314",
    "Zomac": "SI",
    "Pedet": "NO"
  },
  {
    "Id": 17616,
    "Nombremunicipio": "RISARALDA",
    "Iddepartamento": 17,
    "Nombredepartamento": "CALDAS",
    "Longitud": "-75.7672195365",
    "Latitud": "5.16450895652",
    "Zomac": "SI",
    "Pedet": "NO"
  },
  {
    "Id": 17653,
    "Nombremunicipio": "SALAMINA",
    "Iddepartamento": 17,
    "Nombredepartamento": "CALDAS",
    "Longitud": "-75.4872224433",
    "Latitud": "5.40302451457",
    "Zomac": "NO",
    "Pedet": "NO"
  },
  {
    "Id": 17662,
    "Nombremunicipio": "SAMANA",
    "Iddepartamento": 17,
    "Nombredepartamento": "CALDAS",
    "Longitud": "-74.9922577601",
    "Latitud": "5.41308630139",
    "Zomac": "SI",
    "Pedet": "NO"
  },
  {
    "Id": 17665,
    "Nombremunicipio": "SAN JOSE",
    "Iddepartamento": 17,
    "Nombredepartamento": "CALDAS",
    "Longitud": "-75.7920044375",
    "Latitud": "5.08156947455",
    "Zomac": "NO",
    "Pedet": "NO"
  },
  {
    "Id": 17777,
    "Nombremunicipio": "SUPIA",
    "Iddepartamento": 17,
    "Nombredepartamento": "CALDAS",
    "Longitud": "-75.6496603124",
    "Latitud": "5.44684298212",
    "Zomac": "NO",
    "Pedet": "NO"
  },
  {
    "Id": 17867,
    "Nombremunicipio": "VICTORIA",
    "Iddepartamento": 17,
    "Nombredepartamento": "CALDAS",
    "Longitud": "-74.9111530426",
    "Latitud": "5.31742020018",
    "Zomac": "NO",
    "Pedet": "NO"
  },
  {
    "Id": 17873,
    "Nombremunicipio": "VILLAMARIA",
    "Iddepartamento": 17,
    "Nombredepartamento": "CALDAS",
    "Longitud": "-75.5137606023",
    "Latitud": "5.04380668643",
    "Zomac": "NO",
    "Pedet": "NO"
  },
  {
    "Id": 17877,
    "Nombremunicipio": "VITERBO",
    "Iddepartamento": 17,
    "Nombredepartamento": "CALDAS",
    "Longitud": "-75.8706098599",
    "Latitud": "5.06266423587",
    "Zomac": "NO",
    "Pedet": "NO"
  },
  {
    "Id": 18001,
    "Nombremunicipio": "FLORENCIA",
    "Iddepartamento": 18,
    "Nombredepartamento": "CAQUETA",
    "Longitud": "-75.6085604324",
    "Latitud": "1.6179229304",
    "Zomac": "SI",
    "Pedet": "SI"
  },
  {
    "Id": 18029,
    "Nombremunicipio": "ALBANIA",
    "Iddepartamento": 18,
    "Nombredepartamento": "CAQUETA",
    "Longitud": "-75.878370537",
    "Latitud": "1.32852208792",
    "Zomac": "SI",
    "Pedet": "SI"
  },
  {
    "Id": 18094,
    "Nombremunicipio": "BELEN DE LOS ANDAQUIES",
    "Iddepartamento": 18,
    "Nombredepartamento": "CAQUETA",
    "Longitud": "-75.8724739494",
    "Latitud": "1.41578644559",
    "Zomac": "SI",
    "Pedet": "SI"
  },
  {
    "Id": 18150,
    "Nombremunicipio": "CARTAGENA DEL CHAIRA",
    "Iddepartamento": 18,
    "Nombredepartamento": "CAQUETA",
    "Longitud": "-74.8471983686",
    "Latitud": "1.33513495491",
    "Zomac": "SI",
    "Pedet": "SI"
  },
  {
    "Id": 18205,
    "Nombremunicipio": "CURILLO",
    "Iddepartamento": 18,
    "Nombredepartamento": "CAQUETA",
    "Longitud": "-75.9192043462",
    "Latitud": "1.03347374762",
    "Zomac": "SI",
    "Pedet": "SI"
  },
  {
    "Id": 18247,
    "Nombremunicipio": "EL DONCELLO",
    "Iddepartamento": 18,
    "Nombredepartamento": "CAQUETA",
    "Longitud": "-75.2835628711",
    "Latitud": "1.67987247593",
    "Zomac": "SI",
    "Pedet": "SI"
  },
  {
    "Id": 18256,
    "Nombremunicipio": "EL PAUJIL",
    "Iddepartamento": 18,
    "Nombredepartamento": "CAQUETA",
    "Longitud": "-75.3261234569",
    "Latitud": "1.5703732827",
    "Zomac": "SI",
    "Pedet": "SI"
  },
  {
    "Id": 18410,
    "Nombremunicipio": "LA MONTANITA",
    "Iddepartamento": 18,
    "Nombredepartamento": "CAQUETA",
    "Longitud": "-75.4364077628",
    "Latitud": "1.47917263471",
    "Zomac": "SI",
    "Pedet": "SI"
  },
  {
    "Id": 18460,
    "Nombremunicipio": "MILAN",
    "Iddepartamento": 18,
    "Nombredepartamento": "CAQUETA",
    "Longitud": "-75.506962028",
    "Latitud": "1.29042720175",
    "Zomac": "SI",
    "Pedet": "SI"
  },
  {
    "Id": 18479,
    "Nombremunicipio": "MORELIA",
    "Iddepartamento": 18,
    "Nombredepartamento": "CAQUETA",
    "Longitud": "-75.724581403",
    "Latitud": "1.48762336882",
    "Zomac": "SI",
    "Pedet": "SI"
  },
  {
    "Id": 18592,
    "Nombremunicipio": "PUERTO RICO",
    "Iddepartamento": 18,
    "Nombredepartamento": "CAQUETA",
    "Longitud": "-75.1574887391",
    "Latitud": "1.9089350729",
    "Zomac": "SI",
    "Pedet": "SI"
  },
  {
    "Id": 18610,
    "Nombremunicipio": "SAN JOSE DEL FRAGUA",
    "Iddepartamento": 18,
    "Nombredepartamento": "CAQUETA",
    "Longitud": "-75.9735381035",
    "Latitud": "1.33194847974",
    "Zomac": "SI",
    "Pedet": "SI"
  },
  {
    "Id": 18753,
    "Nombremunicipio": "SAN VICENTE DEL CAGUAN",
    "Iddepartamento": 18,
    "Nombredepartamento": "CAQUETA",
    "Longitud": "-74.7673405755",
    "Latitud": "2.11978613132",
    "Zomac": "SI",
    "Pedet": "SI"
  },
  {
    "Id": 18756,
    "Nombremunicipio": "SOLANO",
    "Iddepartamento": 18,
    "Nombredepartamento": "CAQUETA",
    "Longitud": "-75.2537043144",
    "Latitud": ".698977525293",
    "Zomac": "SI",
    "Pedet": "SI"
  },
  {
    "Id": 18785,
    "Nombremunicipio": "SOLITA",
    "Iddepartamento": 18,
    "Nombredepartamento": "CAQUETA",
    "Longitud": "-75.6197340907",
    "Latitud": ".876668003326",
    "Zomac": "SI",
    "Pedet": "SI"
  },
  {
    "Id": 18860,
    "Nombremunicipio": "VALPARAISO",
    "Iddepartamento": 18,
    "Nombredepartamento": "CAQUETA",
    "Longitud": "-75.7065835254",
    "Latitud": "1.19458303208",
    "Zomac": "SI",
    "Pedet": "SI"
  },
  {
    "Id": 19001,
    "Nombremunicipio": "POPAYAN",
    "Iddepartamento": 19,
    "Nombredepartamento": "CAUCA",
    "Longitud": "-76.5740646841",
    "Latitud": "2.48250339062",
    "Zomac": "NO",
    "Pedet": "NO"
  },
  {
    "Id": 19022,
    "Nombremunicipio": "ALMAGUER",
    "Iddepartamento": 19,
    "Nombredepartamento": "CAUCA",
    "Longitud": "-76.8559244891",
    "Latitud": "1.91336023289",
    "Zomac": "NO",
    "Pedet": "NO"
  },
  {
    "Id": 19050,
    "Nombremunicipio": "ARGELIA",
    "Iddepartamento": 19,
    "Nombredepartamento": "CAUCA",
    "Longitud": "-77.2494502806",
    "Latitud": "2.25675490871",
    "Zomac": "SI",
    "Pedet": "SI"
  },
  {
    "Id": 19075,
    "Nombremunicipio": "BALBOA",
    "Iddepartamento": 19,
    "Nombredepartamento": "CAUCA",
    "Longitud": "-77.2158981426",
    "Latitud": "2.04047876828",
    "Zomac": "SI",
    "Pedet": "SI"
  },
  {
    "Id": 19100,
    "Nombremunicipio": "BOLIVAR",
    "Iddepartamento": 19,
    "Nombredepartamento": "CAUCA",
    "Longitud": "-76.9663120354",
    "Latitud": "1.83741640354",
    "Zomac": "NO",
    "Pedet": "NO"
  },
  {
    "Id": 19110,
    "Nombremunicipio": "BUENOS AIRES",
    "Iddepartamento": 19,
    "Nombredepartamento": "CAUCA",
    "Longitud": "-76.6422805942",
    "Latitud": "3.01542682958",
    "Zomac": "SI",
    "Pedet": "SI"
  },
  {
    "Id": 19130,
    "Nombremunicipio": "CAJIBIO",
    "Iddepartamento": 19,
    "Nombredepartamento": "CAUCA",
    "Longitud": "-76.570884274",
    "Latitud": "2.62333825366",
    "Zomac": "SI",
    "Pedet": "SI"
  },
  {
    "Id": 19137,
    "Nombremunicipio": "CALDONO",
    "Iddepartamento": 19,
    "Nombredepartamento": "CAUCA",
    "Longitud": "-76.4844478583",
    "Latitud": "2.79813082558",
    "Zomac": "SI",
    "Pedet": "SI"
  },
  {
    "Id": 19142,
    "Nombremunicipio": "CALOTO",
    "Iddepartamento": 19,
    "Nombredepartamento": "CAUCA",
    "Longitud": "-76.4084870416",
    "Latitud": "3.03407077834",
    "Zomac": "SI",
    "Pedet": "SI"
  },
  {
    "Id": 19212,
    "Nombremunicipio": "CORINTO",
    "Iddepartamento": 19,
    "Nombredepartamento": "CAUCA",
    "Longitud": "-76.2613141858",
    "Latitud": "3.17381545712",
    "Zomac": "SI",
    "Pedet": "SI"
  },
  {
    "Id": 19256,
    "Nombremunicipio": "EL TAMBO",
    "Iddepartamento": 19,
    "Nombredepartamento": "CAUCA",
    "Longitud": "-76.8107722487",
    "Latitud": "2.4513713597",
    "Zomac": "SI",
    "Pedet": "SI"
  },
  {
    "Id": 19290,
    "Nombremunicipio": "FLORENCIA",
    "Iddepartamento": 19,
    "Nombredepartamento": "CAUCA",
    "Longitud": "-77.0725342556",
    "Latitud": "1.68252246324",
    "Zomac": "SI",
    "Pedet": "NO"
  },
  {
    "Id": 19300,
    "Nombremunicipio": "GUACHENE",
    "Iddepartamento": 19,
    "Nombredepartamento": "CAUCA",
    "Longitud": "-76.3921887379",
    "Latitud": "3.13415329544",
    "Zomac": "NO",
    "Pedet": "NO"
  },
  {
    "Id": 19318,
    "Nombremunicipio": "GUAPI",
    "Iddepartamento": 19,
    "Nombredepartamento": "CAUCA",
    "Longitud": "-77.8880334723",
    "Latitud": "2.57291836569",
    "Zomac": "SI",
    "Pedet": "SI"
  },
  {
    "Id": 19355,
    "Nombremunicipio": "INZA",
    "Iddepartamento": 19,
    "Nombredepartamento": "CAUCA",
    "Longitud": "-76.0635027215",
    "Latitud": "2.54918298431",
    "Zomac": "NO",
    "Pedet": "NO"
  },
  {
    "Id": 19364,
    "Nombremunicipio": "JAMBALO",
    "Iddepartamento": 19,
    "Nombredepartamento": "CAUCA",
    "Longitud": "-76.3238781841",
    "Latitud": "2.77783734662",
    "Zomac": "SI",
    "Pedet": "SI"
  },
  {
    "Id": 19392,
    "Nombremunicipio": "LA SIERRA",
    "Iddepartamento": 19,
    "Nombredepartamento": "CAUCA",
    "Longitud": "-76.7632090797",
    "Latitud": "2.1793224055",
    "Zomac": "NO",
    "Pedet": "NO"
  },
  {
    "Id": 19397,
    "Nombremunicipio": "LA VEGA",
    "Iddepartamento": 19,
    "Nombredepartamento": "CAUCA",
    "Longitud": "-76.7788973014",
    "Latitud": "2.00110922351",
    "Zomac": "NO",
    "Pedet": "NO"
  },
  {
    "Id": 19418,
    "Nombremunicipio": "LOPEZ DE MICAY",
    "Iddepartamento": 19,
    "Nombredepartamento": "CAUCA",
    "Longitud": "-77.2476915421",
    "Latitud": "2.84671593199",
    "Zomac": "SI",
    "Pedet": "SI"
  },
  {
    "Id": 19450,
    "Nombremunicipio": "MERCADERES",
    "Iddepartamento": 19,
    "Nombredepartamento": "CAUCA",
    "Longitud": "-77.1658443228",
    "Latitud": "1.7757724953",
    "Zomac": "SI",
    "Pedet": "SI"
  },
  {
    "Id": 19455,
    "Nombremunicipio": "MIRANDA",
    "Iddepartamento": 19,
    "Nombredepartamento": "CAUCA",
    "Longitud": "-76.2288698651",
    "Latitud": "3.25309540523",
    "Zomac": "SI",
    "Pedet": "SI"
  },
  {
    "Id": 19473,
    "Nombremunicipio": "MORALES",
    "Iddepartamento": 19,
    "Nombredepartamento": "CAUCA",
    "Longitud": "-76.6292205639",
    "Latitud": "2.75455856722",
    "Zomac": "SI",
    "Pedet": "SI"
  },
  {
    "Id": 19513,
    "Nombremunicipio": "PADILLA",
    "Iddepartamento": 19,
    "Nombredepartamento": "CAUCA",
    "Longitud": "-76.3132908947",
    "Latitud": "3.22085383574",
    "Zomac": "NO",
    "Pedet": "NO"
  },
  {
    "Id": 19517,
    "Nombremunicipio": "PAEZ",
    "Iddepartamento": 19,
    "Nombredepartamento": "CAUCA",
    "Longitud": "-75.9719645112",
    "Latitud": "2.64136676756",
    "Zomac": "NO",
    "Pedet": "NO"
  },
  {
    "Id": 19532,
    "Nombremunicipio": "PATIA",
    "Iddepartamento": 19,
    "Nombredepartamento": "CAUCA",
    "Longitud": "-76.980978593",
    "Latitud": "2.1156702266",
    "Zomac": "SI",
    "Pedet": "SI"
  },
  {
    "Id": 19533,
    "Nombremunicipio": "PIAMONTE",
    "Iddepartamento": 19,
    "Nombredepartamento": "CAUCA",
    "Longitud": "-76.3257642468",
    "Latitud": "1.11719778195",
    "Zomac": "SI",
    "Pedet": "NO"
  },
  {
    "Id": 19548,
    "Nombremunicipio": "PIENDAMO - TUNIA",
    "Iddepartamento": 19,
    "Nombredepartamento": "CAUCA",
    "Longitud": "-76.528505916",
    "Latitud": "2.64198757766",
    "Zomac": "SI",
    "Pedet": "SI"
  },
  {
    "Id": 19573,
    "Nombremunicipio": "PUERTO TEJADA",
    "Iddepartamento": 19,
    "Nombredepartamento": "CAUCA",
    "Longitud": "-76.4173077964",
    "Latitud": "3.23329412702",
    "Zomac": "NO",
    "Pedet": "NO"
  },
  {
    "Id": 19585,
    "Nombremunicipio": "PURACE",
    "Iddepartamento": 19,
    "Nombredepartamento": "CAUCA",
    "Longitud": "-76.4956389436",
    "Latitud": "2.34264404738",
    "Zomac": "NO",
    "Pedet": "NO"
  },
  {
    "Id": 19622,
    "Nombremunicipio": "ROSAS",
    "Iddepartamento": 19,
    "Nombredepartamento": "CAUCA",
    "Longitud": "-76.7403518701",
    "Latitud": "2.26097969885",
    "Zomac": "NO",
    "Pedet": "NO"
  },
  {
    "Id": 19693,
    "Nombremunicipio": "SAN SEBASTIAN",
    "Iddepartamento": 19,
    "Nombredepartamento": "CAUCA",
    "Longitud": "-76.7693316013",
    "Latitud": "1.83837388745",
    "Zomac": "NO",
    "Pedet": "NO"
  },
  {
    "Id": 19698,
    "Nombremunicipio": "SANTANDER DE QUILICHAO",
    "Iddepartamento": 19,
    "Nombredepartamento": "CAUCA",
    "Longitud": "-76.4853702902",
    "Latitud": "3.01605390077",
    "Zomac": "SI",
    "Pedet": "SI"
  },
  {
    "Id": 19701,
    "Nombremunicipio": "SANTA ROSA",
    "Iddepartamento": 19,
    "Nombredepartamento": "CAUCA",
    "Longitud": "-76.5739729713",
    "Latitud": "1.70242028367",
    "Zomac": "SI",
    "Pedet": "NO"
  },
  {
    "Id": 19743,
    "Nombremunicipio": "SILVIA",
    "Iddepartamento": 19,
    "Nombredepartamento": "CAUCA",
    "Longitud": "-76.3795704195",
    "Latitud": "2.61181564498",
    "Zomac": "NO",
    "Pedet": "NO"
  },
  {
    "Id": 19760,
    "Nombremunicipio": "SOTARA PAISPAMBA",
    "Iddepartamento": 19,
    "Nombredepartamento": "CAUCA",
    "Longitud": "-76.6132981543",
    "Latitud": "2.25313406728",
    "Zomac": "NO",
    "Pedet": "NO"
  },
  {
    "Id": 19780,
    "Nombremunicipio": "SUAREZ",
    "Iddepartamento": 19,
    "Nombredepartamento": "CAUCA",
    "Longitud": "-76.6934471137",
    "Latitud": "2.9597015369",
    "Zomac": "SI",
    "Pedet": "SI"
  },
  {
    "Id": 19785,
    "Nombremunicipio": "SUCRE",
    "Iddepartamento": 19,
    "Nombredepartamento": "CAUCA",
    "Longitud": "-76.9262773071",
    "Latitud": "2.03825139668",
    "Zomac": "NO",
    "Pedet": "NO"
  },
  {
    "Id": 19807,
    "Nombremunicipio": "TIMBIO",
    "Iddepartamento": 19,
    "Nombredepartamento": "CAUCA",
    "Longitud": "-76.6842387889",
    "Latitud": "2.34997642507",
    "Zomac": "NO",
    "Pedet": "NO"
  },
  {
    "Id": 19809,
    "Nombremunicipio": "TIMBIQUI",
    "Iddepartamento": 19,
    "Nombredepartamento": "CAUCA",
    "Longitud": "-77.6675652428",
    "Latitud": "2.77741370208",
    "Zomac": "SI",
    "Pedet": "SI"
  },
  {
    "Id": 19821,
    "Nombremunicipio": "TORIBIO",
    "Iddepartamento": 19,
    "Nombredepartamento": "CAUCA",
    "Longitud": "-76.271127213",
    "Latitud": "2.95145040911",
    "Zomac": "SI",
    "Pedet": "SI"
  },
  {
    "Id": 19824,
    "Nombremunicipio": "TOTORO",
    "Iddepartamento": 19,
    "Nombredepartamento": "CAUCA",
    "Longitud": "-76.4024425093",
    "Latitud": "2.51022919252",
    "Zomac": "NO",
    "Pedet": "NO"
  },
  {
    "Id": 19845,
    "Nombremunicipio": "VILLA RICA",
    "Iddepartamento": 19,
    "Nombredepartamento": "CAUCA",
    "Longitud": "-76.457872658",
    "Latitud": "3.17757792648",
    "Zomac": "NO",
    "Pedet": "NO"
  },
  {
    "Id": 20001,
    "Nombremunicipio": "VALLEDUPAR",
    "Iddepartamento": 20,
    "Nombredepartamento": "CESAR",
    "Longitud": "-73.259389309",
    "Latitud": "10.4604812152",
    "Zomac": "NO",
    "Pedet": "SI"
  },
  {
    "Id": 20011,
    "Nombremunicipio": "AGUACHICA",
    "Iddepartamento": 20,
    "Nombredepartamento": "CESAR",
    "Longitud": "-73.599028585",
    "Latitud": "8.31033695838",
    "Zomac": "SI",
    "Pedet": "NO"
  },
  {
    "Id": 20013,
    "Nombremunicipio": "AGUSTIN CODAZZI",
    "Iddepartamento": 20,
    "Nombredepartamento": "CESAR",
    "Longitud": "-73.2383961682",
    "Latitud": "10.0404579941",
    "Zomac": "SI",
    "Pedet": "SI"
  },
  {
    "Id": 20032,
    "Nombremunicipio": "ASTREA",
    "Iddepartamento": 20,
    "Nombredepartamento": "CESAR",
    "Longitud": "-73.9758637993",
    "Latitud": "9.49816110765",
    "Zomac": "NO",
    "Pedet": "NO"
  },
  {
    "Id": 20045,
    "Nombremunicipio": "BECERRIL",
    "Iddepartamento": 20,
    "Nombredepartamento": "CESAR",
    "Longitud": "-73.2792316745",
    "Latitud": "9.70460611578",
    "Zomac": "SI",
    "Pedet": "SI"
  },
  {
    "Id": 20060,
    "Nombremunicipio": "BOSCONIA",
    "Iddepartamento": 20,
    "Nombredepartamento": "CESAR",
    "Longitud": "-73.8887676643",
    "Latitud": "9.97509470036",
    "Zomac": "SI",
    "Pedet": "NO"
  },
  {
    "Id": 20175,
    "Nombremunicipio": "CHIMICHAGUA",
    "Iddepartamento": 20,
    "Nombredepartamento": "CESAR",
    "Longitud": "-73.8133284455",
    "Latitud": "9.25827144037",
    "Zomac": "NO",
    "Pedet": "NO"
  },
  {
    "Id": 20178,
    "Nombremunicipio": "CHIRIGUANA",
    "Iddepartamento": 20,
    "Nombredepartamento": "CESAR",
    "Longitud": "-73.6001444386",
    "Latitud": "9.36118961071",
    "Zomac": "SI",
    "Pedet": "NO"
  },
  {
    "Id": 20228,
    "Nombremunicipio": "CURUMANI",
    "Iddepartamento": 20,
    "Nombredepartamento": "CESAR",
    "Longitud": "-73.5409865164",
    "Latitud": "9.20181059219",
    "Zomac": "SI",
    "Pedet": "NO"
  },
  {
    "Id": 20238,
    "Nombremunicipio": "EL COPEY",
    "Iddepartamento": 20,
    "Nombredepartamento": "CESAR",
    "Longitud": "-73.9627174377",
    "Latitud": "10.1495254346",
    "Zomac": "SI",
    "Pedet": "NO"
  },
  {
    "Id": 20250,
    "Nombremunicipio": "EL PASO",
    "Iddepartamento": 20,
    "Nombredepartamento": "CESAR",
    "Longitud": "-73.7417884838",
    "Latitud": "9.668470391",
    "Zomac": "NO",
    "Pedet": "NO"
  },
  {
    "Id": 20295,
    "Nombremunicipio": "GAMARRA",
    "Iddepartamento": 20,
    "Nombredepartamento": "CESAR",
    "Longitud": "-73.7437599973",
    "Latitud": "8.32044905058",
    "Zomac": "NO",
    "Pedet": "NO"
  },
  {
    "Id": 20310,
    "Nombremunicipio": "GONZALEZ",
    "Iddepartamento": 20,
    "Nombredepartamento": "CESAR",
    "Longitud": "-73.3800398618",
    "Latitud": "8.38960409745",
    "Zomac": "NO",
    "Pedet": "NO"
  },
  {
    "Id": 20383,
    "Nombremunicipio": "LA GLORIA",
    "Iddepartamento": 20,
    "Nombredepartamento": "CESAR",
    "Longitud": "-73.8032101165",
    "Latitud": "8.61929787819",
    "Zomac": "SI",
    "Pedet": "NO"
  },
  {
    "Id": 20400,
    "Nombremunicipio": "LA JAGUA DE IBIRICO",
    "Iddepartamento": 20,
    "Nombredepartamento": "CESAR",
    "Longitud": "-73.3342279147",
    "Latitud": "9.56388730036",
    "Zomac": "SI",
    "Pedet": "SI"
  },
  {
    "Id": 20443,
    "Nombremunicipio": "MANAURE BALCON DEL CESAR",
    "Iddepartamento": 20,
    "Nombredepartamento": "CESAR",
    "Longitud": "-73.0283204603",
    "Latitud": "10.3908986424",
    "Zomac": "SI",
    "Pedet": "SI"
  },
  {
    "Id": 20517,
    "Nombremunicipio": "PAILITAS",
    "Iddepartamento": 20,
    "Nombredepartamento": "CESAR",
    "Longitud": "-73.6258166827",
    "Latitud": "8.95603320557",
    "Zomac": "SI",
    "Pedet": "NO"
  },
  {
    "Id": 20550,
    "Nombremunicipio": "PELAYA",
    "Iddepartamento": 20,
    "Nombredepartamento": "CESAR",
    "Longitud": "-73.666354865",
    "Latitud": "8.68865096387",
    "Zomac": "SI",
    "Pedet": "NO"
  },
  {
    "Id": 20570,
    "Nombremunicipio": "PUEBLO BELLO",
    "Iddepartamento": 20,
    "Nombredepartamento": "CESAR",
    "Longitud": "-73.5890106167",
    "Latitud": "10.4150615983",
    "Zomac": "SI",
    "Pedet": "SI"
  },
  {
    "Id": 20614,
    "Nombremunicipio": "RIO DE ORO",
    "Iddepartamento": 20,
    "Nombredepartamento": "CESAR",
    "Longitud": "-73.3863951998",
    "Latitud": "8.29228738416",
    "Zomac": "NO",
    "Pedet": "NO"
  },
  {
    "Id": 20621,
    "Nombremunicipio": "LA PAZ",
    "Iddepartamento": 20,
    "Nombredepartamento": "CESAR",
    "Longitud": "-73.1713629126",
    "Latitud": "10.3874895364",
    "Zomac": "SI",
    "Pedet": "SI"
  },
  {
    "Id": 20710,
    "Nombremunicipio": "SAN ALBERTO",
    "Iddepartamento": 20,
    "Nombredepartamento": "CESAR",
    "Longitud": "-73.394225336",
    "Latitud": "7.76082642",
    "Zomac": "NO",
    "Pedet": "NO"
  },
  {
    "Id": 20750,
    "Nombremunicipio": "SAN DIEGO",
    "Iddepartamento": 20,
    "Nombredepartamento": "CESAR",
    "Longitud": "-73.1812180784",
    "Latitud": "10.3330328571",
    "Zomac": "SI",
    "Pedet": "SI"
  },
  {
    "Id": 20770,
    "Nombremunicipio": "SAN MARTIN",
    "Iddepartamento": 20,
    "Nombredepartamento": "CESAR",
    "Longitud": "-73.510975182",
    "Latitud": "7.99989545861",
    "Zomac": "NO",
    "Pedet": "NO"
  },
  {
    "Id": 20787,
    "Nombremunicipio": "TAMALAMEQUE",
    "Iddepartamento": 20,
    "Nombredepartamento": "CESAR",
    "Longitud": "-73.8121727977",
    "Latitud": "8.86172498622",
    "Zomac": "NO",
    "Pedet": "NO"
  },
  {
    "Id": 23001,
    "Nombremunicipio": "MONTERIA",
    "Iddepartamento": 23,
    "Nombredepartamento": "CORDOBA",
    "Longitud": "-75.8755779091",
    "Latitud": "8.7451325909",
    "Zomac": "NO",
    "Pedet": "NO"
  },
  {
    "Id": 23068,
    "Nombremunicipio": "AYAPEL",
    "Iddepartamento": 23,
    "Nombredepartamento": "CORDOBA",
    "Longitud": "-75.1462907587",
    "Latitud": "8.31444662901",
    "Zomac": "NO",
    "Pedet": "NO"
  },
  {
    "Id": 23079,
    "Nombremunicipio": "BUENAVISTA",
    "Iddepartamento": 23,
    "Nombredepartamento": "CORDOBA",
    "Longitud": "-75.4808987065",
    "Latitud": "8.22116555415",
    "Zomac": "NO",
    "Pedet": "NO"
  },
  {
    "Id": 23090,
    "Nombremunicipio": "CANALETE",
    "Iddepartamento": 23,
    "Nombredepartamento": "CORDOBA",
    "Longitud": "-76.2413965182",
    "Latitud": "8.78694452257",
    "Zomac": "NO",
    "Pedet": "NO"
  },
  {
    "Id": 23162,
    "Nombremunicipio": "CERETE",
    "Iddepartamento": 23,
    "Nombredepartamento": "CORDOBA",
    "Longitud": "-75.7962165157",
    "Latitud": "8.88861181239",
    "Zomac": "NO",
    "Pedet": "NO"
  },
  {
    "Id": 23168,
    "Nombremunicipio": "CHIMA",
    "Iddepartamento": 23,
    "Nombredepartamento": "CORDOBA",
    "Longitud": "-75.6268955144",
    "Latitud": "9.14948045696",
    "Zomac": "NO",
    "Pedet": "NO"
  },
  {
    "Id": 23182,
    "Nombremunicipio": "CHINU",
    "Iddepartamento": 23,
    "Nombredepartamento": "CORDOBA",
    "Longitud": "-75.3997196232",
    "Latitud": "9.10529408935",
    "Zomac": "NO",
    "Pedet": "NO"
  },
  {
    "Id": 23189,
    "Nombremunicipio": "CIENAGA DE ORO",
    "Iddepartamento": 23,
    "Nombredepartamento": "CORDOBA",
    "Longitud": "-75.6207866383",
    "Latitud": "8.87550224563",
    "Zomac": "NO",
    "Pedet": "NO"
  },
  {
    "Id": 23300,
    "Nombremunicipio": "COTORRA",
    "Iddepartamento": 23,
    "Nombredepartamento": "CORDOBA",
    "Longitud": "-75.79914949",
    "Latitud": "9.03708805117",
    "Zomac": "NO",
    "Pedet": "NO"
  },
  {
    "Id": 23350,
    "Nombremunicipio": "LA APARTADA",
    "Iddepartamento": 23,
    "Nombredepartamento": "CORDOBA",
    "Longitud": "-75.339016306",
    "Latitud": "8.05245366011",
    "Zomac": "NO",
    "Pedet": "NO"
  },
  {
    "Id": 23417,
    "Nombremunicipio": "LORICA",
    "Iddepartamento": 23,
    "Nombredepartamento": "CORDOBA",
    "Longitud": "-75.8159953999",
    "Latitud": "9.24085514265",
    "Zomac": "NO",
    "Pedet": "NO"
  },
  {
    "Id": 23419,
    "Nombremunicipio": "LOS CORDOBAS",
    "Iddepartamento": 23,
    "Nombredepartamento": "CORDOBA",
    "Longitud": "-76.3551928772",
    "Latitud": "8.8921689971",
    "Zomac": "NO",
    "Pedet": "NO"
  },